[
  {
    "name": "7 Grams Cafe",
    "address": "505 Church St Richmond VIC 3121",
    "category": "Cafe",
    "description": "Leashed dogs welcome at street seating.",
    "lat": -37.8286067,
    "lng": 144.9976255,
    "geocodeSource": "nominatim"
  },
  {
    "name": "Abbots Yard",
    "address": "329 Victoria St Abbotsford VIC 3067",
    "category": "Pub/Bar",
    "description": "Dog-friendly outdoor beer garden and communal dining area.",
    "lat": -37.8098774,
    "lng": 144.9963564,
    "geocodeSource": "nominatim",
    "instagramUrl": "https://www.instagram.com/abbots.yard/"
  },
  {
    "name": "Alimentari Fitzroy Delicatessen",
    "address": "251 Brunswick St Fitzroy VIC 3065",
    "category": "Cafe",
    "description": "Dogs welcome at outdoor pavement tables.",
    "lat": -37.7997308,
    "lng": 144.9780654,
    "geocodeSource": "nominatim"
  },
  {
    "name": "All Are Welcome",
    "address": "190 High St Northcote VIC 3070",
    "category": "Cafe",
    "description": "Dogs welcome in outdoor undercover seating.",
    "lat": -37.7747727,
    "lng": 144.9980519,
    "geocodeSource": "nominatim"
  },
  {
    "name": "Arbory Bar & Eatery",
    "address": "1 Flinders Walk Melbourne VIC 3000",
    "category": "Pub/Bar",
    "description": "Dogs welcome in heated undercover courtyard.",
    "lat": -37.8188647,
    "lng": 144.9677115,
    "geocodeSource": "nominatim"
  },
  {
    "name": "Arcadia Cafe",
    "address": "193 Gertrude St Fitzroy VIC 3065",
    "category": "Cafe",
    "description": "Covered outdoor area with dog bowls.",
    "lat": -37.8059489,
    "lng": 144.9810576,
    "geocodeSource": "nominatim"
  },
  {
    "name": "Atherton Reserve",
    "address": "187 Napier St Fitzroy VIC 3065",
    "category": "Park",
    "description": "Dogs allowed off-leash on unfenced sporting grounds when not in use.",
    "lat": -37.8027268,
    "lng": 144.9796112,
    "geocodeSource": "nominatim"
  },
  {
    "name": "Brookville Gardens",
    "address": "Canterbury Rd Toorak VIC 3142",
    "category": "Park",
    "description": "Designated off-lead garden with dog waste bag dispenser.",
    "lat": -37.8449845,
    "lng": 145.0100376,
    "geocodeSource": "stonnington"
  },
  {
    "name": "Lumley Gardens",
    "address": "Jessamine Ave Prahran VIC 3181",
    "category": "Park",
    "description": "Designated off-lead gardens with lawns and dog-friendly open space.",
    "lat": -37.8575825,
    "lng": 145.003432,
    "geocodeSource": "stonnington"
  },
  {
    "name": "Princes Gardens",
    "address": "Little Chapel St Prahran VIC 3181",
    "category": "Park",
    "description": "Designated off-lead gardens with drinking fountains.",
    "lat": -37.8483542,
    "lng": 144.9949491,
    "geocodeSource": "stonnington"
  },
  {
    "name": "Surrey Park",
    "address": "67-73 Surrey Rd South Yarra VIC 3141",
    "category": "Park",
    "description": "Designated off-lead park with dog waste bags and drinking fountains.",
    "lat": -37.8425684,
    "lng": 144.9985345,
    "geocodeSource": "stonnington"
  },
  {
    "name": "Windsor Siding",
    "address": "104 Union St Windsor VIC 3181",
    "category": "Park",
    "description": "Designated off-lead reserve between Union and Peel streets.",
    "lat": -37.8543718,
    "lng": 144.9893011,
    "geocodeSource": "stonnington"
  },
  {
    "name": "Augie's Place",
    "address": "460 Victoria St Brunswick VIC 3056",
    "category": "Cafe",
    "description": "Dog-friendly cafe with dog treats and drinks.",
    "instagramUrl": "https://www.instagram.com/augiesplace/",
    "lat": -37.7657742,
    "lng": 144.9506522,
    "geocodeSource": "facebook+nominatim"
  },
  {
    "name": "Babble Bar & Cafe",
    "address": "4B Izett St Prahran VIC 3181",
    "category": "Cafe",
    "description": "Dog-friendly cafe and bar with water bowls and covered patio.",
    "lat": -37.8489293,
    "lng": 144.9922795,
    "geocodeSource": "manual"
  },
  {
    "name": "Barkly Gardens",
    "address": "Coppin St and Mary St Richmond VIC 3121",
    "category": "Park",
    "description": "Dog on-leash and off-leash zones are marked in the park.",
    "lat": -37.8283779,
    "lng": 145.0013798,
    "geocodeSource": "manual"
  },
  {
    "name": "Beachcomber Cafe",
    "address": "10 Jacka Blvd St Kilda VIC 3182",
    "category": "Cafe",
    "description": "Dogs welcome in front courtyard.",
    "lat": -37.8654075,
    "lng": 144.9734395,
    "geocodeSource": "nominatim"
  },
  {
    "name": "Beermash",
    "address": "306 Smith St Collingwood VIC 3066",
    "category": "Pub/Bar",
    "description": "Leashed dogs welcome inside and at street seating.",
    "lat": -37.8000692,
    "lng": 144.984241,
    "geocodeSource": "nominatim"
  },
  {
    "name": "Bendigo Street Milk Bar",
    "address": "37 Bendigo St Richmond VIC 3121",
    "category": "Cafe",
    "description": "Dogs welcome in courtyard and street seating.",
    "lat": -37.8247533,
    "lng": 145.012155,
    "geocodeSource": "nominatim"
  },
  {
    "name": "Blackcat",
    "address": "252 Brunswick St Fitzroy VIC 3065",
    "category": "Pub/Bar",
    "description": "Dogs welcome in courtyard and street seating with undercover areas.",
    "lat": -37.799889,
    "lng": 144.978373,
    "geocodeSource": "nominatim"
  },
  {
    "name": "Bodriggy Brewing",
    "address": "245 Johnston St Abbotsford VIC 3067",
    "category": "Pub/Bar",
    "description": "Dogs welcome in inside foyer area and at outdoor tables with water bowls.",
    "lat": -37.8001115,
    "lng": 144.9945274,
    "geocodeSource": "nominatim"
  },
  {
    "name": "Bonny",
    "address": "177 Brunswick St Fitzroy VIC 3065",
    "category": "Pub/Bar",
    "description": "Dog-friendly all-weather beer garden.",
    "lat": -37.8021833,
    "lng": 144.9776109,
    "geocodeSource": "nominatim"
  },
  {
    "name": "Bouzy Rouge",
    "address": "470 Bridge Rd Richmond VIC 3121",
    "category": "Pub/Bar",
    "description": "Dog-friendly fully covered courtyard.",
    "lat": -37.8196974,
    "lng": 145.0071315,
    "geocodeSource": "nominatim"
  },
  {
    "name": "Bridie O'Reilly's",
    "address": "462 Chapel St South Yarra VIC 3141",
    "category": "Pub/Bar",
    "description": "Dogs welcome in large outdoor area.",
    "lat": -37.8435623,
    "lng": 144.9950056,
    "geocodeSource": "nominatim"
  },
  {
    "name": "Cafe Gaia",
    "address": "4 Avoca St South Yarra VIC 3141",
    "category": "Cafe",
    "description": "Dog-friendly cafe with outdoor seating.",
    "lat": -37.8382659,
    "lng": 144.9893314,
    "geocodeSource": "nominatim"
  },
  {
    "name": "Cafe Park Lane",
    "address": "387 Clarendon St South Melbourne VIC 3205",
    "category": "Cafe",
    "description": "Dog-friendly cafe with treats available at the counter.",
    "lat": -37.8364806,
    "lng": 144.9624621,
    "geocodeSource": "nominatim"
  },
  {
    "name": "Cafe Piccante",
    "address": "216 St Georges Rd Fitzroy North VIC 3068",
    "category": "Cafe",
    "description": "Dog-friendly cafe with rear courtyard.",
    "lat": -37.7840077,
    "lng": 144.9833889,
    "geocodeSource": "nominatim"
  },
  {
    "name": "Caroline Gardens",
    "address": "Caroline Street South South Yarra VIC 3141",
    "category": "Park",
    "description": "Dog off-lead park with drinking fountains and shade areas.",
    "lat": -37.8395769,
    "lng": 144.9877442,
    "geocodeSource": "nominatim"
  },
  {
    "name": "Carwyn Cellars",
    "address": "877 High St Thornbury VIC 3071",
    "category": "Pub/Bar",
    "description": "Dog-friendly beer garden and outdoor seating.",
    "instagramUrl": "https://www.instagram.com/carwyncellars/",
    "lat": -37.7540179,
    "lng": 145.0012079,
    "geocodeSource": "facebook+nominatim"
  },
  {
    "name": "Cavallini",
    "address": "354 Queens Parade Fitzroy North VIC 3068",
    "category": "Cafe",
    "description": "Dogs welcome in the courtyard with treats available.",
    "lat": -37.78803,
    "lng": 144.99141,
    "geocodeSource": "manual"
  },
  {
    "name": "Chris Gahan Reserve",
    "address": "19 Hornby St Windsor VIC 3181",
    "category": "Park",
    "description": "Dogs allowed off-leash during designated morning and evening times.",
    "lat": -37.8561685,
    "lng": 144.9955747,
    "geocodeSource": "nominatim"
  },
  {
    "name": "Citizens Park",
    "address": "Corner Church St and Highett St Richmond VIC 3121",
    "category": "Park",
    "description": "Dogs allowed off-leash when sporting grounds are not in use.",
    "lat": -37.8167629,
    "lng": 145.0006686,
    "geocodeSource": "manual"
  },
  {
    "name": "College Lawn Hotel",
    "address": "8/36 Greville St Prahran VIC 3181",
    "category": "Pub/Bar",
    "description": "Dogs welcome in undercover beer garden with water bowls.",
    "lat": -37.8494531,
    "lng": 144.9928302,
    "geocodeSource": "nominatim"
  },
  {
    "name": "Como Park and Thomas Oval Dog Park",
    "address": "23 Como Ave South Yarra VIC 3141",
    "category": "Park",
    "description": "Dogs allowed off-leash in Thomas Oval Dog Park.",
    "lat": -37.8370865,
    "lng": 145.0027238,
    "geocodeSource": "nominatim"
  },
  {
    "name": "Coquette Clothes",
    "address": "Rear 336 Queens Parade Fitzroy North VIC 3068",
    "category": "Shop",
    "description": "Dogs welcome in-store while browsing.",
    "lat": -37.78825,
    "lng": 144.99091,
    "geocodeSource": "manual"
  },
  {
    "name": "Concrete Boots Bar",
    "address": "381 Burnley St Richmond VIC 3121",
    "category": "Pub/Bar",
    "description": "Dogs welcome inside and at heated street seating.",
    "lat": -37.8262768,
    "lng": 145.0073904,
    "geocodeSource": "nominatim"
  },
  {
    "name": "Convent Bakery",
    "address": "1 St Heliers St Abbotsford VIC 3067",
    "category": "Cafe",
    "description": "Dogs welcome in undercover courtyard.",
    "lat": -37.8035316,
    "lng": 145.0048929,
    "geocodeSource": "nominatim"
  },
  {
    "name": "Crooked Letters",
    "address": "293 High St Prahran VIC 3181",
    "category": "Cafe",
    "description": "Dogs welcome at outdoor seating with treats available.",
    "lat": -37.8523406,
    "lng": 144.9980002,
    "geocodeSource": "nominatim"
  },
  {
    "name": "Curtain Square",
    "address": "Rathdowne St Carlton North VIC 3054",
    "category": "Park",
    "description": "Dog-friendly park with on-leash and off-leash zones.",
    "lat": -37.7894594,
    "lng": 144.9719931,
    "geocodeSource": "nominatim"
  },
  {
    "name": "Darling Gardens",
    "address": "221 Gold St Clifton Hill VIC 3068",
    "category": "Park",
    "description": "Part of the park is designated dog off-leash.",
    "lat": -37.7908939,
    "lng": 144.9902204,
    "geocodeSource": "nominatim"
  },
  {
    "name": "Doghouse Cafe",
    "address": "195 Johnston St Collingwood VIC 3066",
    "category": "Cafe",
    "description": "Dog-focused cafe with dog menu and off-lead rear area.",
    "lat": -37.7998667,
    "lng": 144.9919632,
    "geocodeSource": "nominatim"
  },
  {
    "name": "Dr Morse Bar & Eatery",
    "address": "274 Johnston St Abbotsford VIC 3067",
    "category": "Pub/Bar",
    "description": "Dogs welcome in courtyard and street seating.",
    "lat": -37.799833,
    "lng": 144.9941396,
    "geocodeSource": "nominatim"
  },
  {
    "name": "Edinburgh Gardens",
    "address": "65 Alfred Crescent Fitzroy North VIC 3068",
    "category": "Park",
    "description": "Large designated dog off-leash areas with water tap and toilets.",
    "lat": -37.7870295,
    "lng": 144.9859854,
    "geocodeSource": "nominatim"
  },
  {
    "name": "El Mirage",
    "address": "349 Lygon St Brunswick East VIC 3057",
    "category": "Cafe",
    "description": "Dogs welcome at outdoor seating with treats available.",
    "lat": -37.7676444,
    "lng": 144.9721856,
    "geocodeSource": "nominatim"
  },
  {
    "name": "Faraday's Cage",
    "address": "325-329 Gore St Fitzroy VIC 3065",
    "category": "Cafe",
    "description": "Dog-friendly cafe with outdoor seating.",
    "lat": -37.7993754,
    "lng": 144.9827654,
    "geocodeSource": "facebook+nominatim"
  },
  {
    "name": "Fawkner Park",
    "address": "24-88 Commercial Rd South Yarra VIC 3141",
    "category": "Park",
    "description": "Designated dog off-leash areas with water taps and toilets.",
    "lat": -37.8413214,
    "lng": 144.9844022,
    "geocodeSource": "nominatim"
  },
  {
    "name": "Field Black Cafe",
    "address": "468 High St Northcote VIC 3070",
    "category": "Cafe",
    "description": "Dogs welcome in courtyard and street seating.",
    "lat": -37.7660818,
    "lng": 144.9995388,
    "geocodeSource": "nominatim"
  },
  {
    "name": "Fitzroy Town Hall Hotel",
    "address": "166 Johnston St Fitzroy VIC 3065",
    "category": "Pub/Bar",
    "description": "Pups welcome in the public bar and outdoor deck with treats behind the bar.",
    "lat": -37.7987104,
    "lng": 144.9804853,
    "geocodeSource": "facebook+manual",
    "instagramUrl": "https://www.instagram.com/fitzroytownhallhotel/"
  },
  {
    "name": "Flockhart Reserve",
    "address": "52 Flockhart St Abbotsford VIC 3067",
    "category": "Park",
    "description": "Dog off-leash area on the Yarra River.",
    "lat": -37.8080012,
    "lng": 145.0077923,
    "geocodeSource": "nominatim"
  },
  {
    "name": "Fourth Chapter",
    "address": "385 High St Prahran VIC 3181",
    "category": "Cafe",
    "description": "Dogs welcome at outdoor seating with water bowls and treats.",
    "lat": -37.8527359,
    "lng": 145.0012404,
    "geocodeSource": "nominatim"
  },
  {
    "name": "Friends of Mine",
    "address": "506 Swan St Richmond VIC 3121",
    "category": "Cafe",
    "description": "Dogs welcome at outdoor seating with water bowls.",
    "lat": -37.8271012,
    "lng": 145.0092499,
    "geocodeSource": "nominatim"
  },
  {
    "name": "Gahan Reserve",
    "address": "118 Park St Collingwood VIC 3066",
    "category": "Park",
    "description": "Southern half is a designated dog off-leash zone.",
    "lat": -37.80348,
    "lng": 144.9944,
    "geocodeSource": "manual"
  },
  {
    "name": "Glory Us",
    "address": "73 Reid St Fitzroy North VIC 3068",
    "category": "Cafe",
    "description": "Dogs welcome for coffee and dog treats stocked.",
    "lat": -37.7853874,
    "lng": 144.9804807,
    "geocodeSource": "nominatim"
  },
  {
    "name": "Goldy's Tavern",
    "address": "66 Gold St Collingwood VIC 3066",
    "category": "Pub/Bar",
    "description": "Dog-friendly pub with undercover beer garden.",
    "lat": -37.7965061,
    "lng": 144.9898526,
    "geocodeSource": "nominatim"
  },
  {
    "name": "Greensleeves Coffee House",
    "address": "100 Scotchmer St Fitzroy North VIC 3068",
    "category": "Cafe",
    "description": "Dogs welcome at outdoor seating and courtyard tables.",
    "lat": -37.7832356,
    "lng": 144.9821608,
    "geocodeSource": "facebook+nominatim"
  },
  {
    "name": "Hachi Dog Boutique & Spa",
    "address": "16A Toorak Rd South Yarra VIC 3141",
    "category": "Shop",
    "description": "Dogs welcome in-store for fittings and shopping.",
    "lat": -37.8385348,
    "lng": 144.9870285,
    "geocodeSource": "nominatim"
  },
  {
    "name": "Harlow",
    "address": "447 Church St Richmond VIC 3121",
    "category": "Pub/Bar",
    "description": "Dogs welcome on rooftop courtyard and street seating.",
    "lat": -37.826795,
    "lng": 144.9979343,
    "geocodeSource": "nominatim"
  },
  {
    "name": "Holla Coffee Roasters",
    "address": "284 Victoria St Richmond VIC 3121",
    "category": "Cafe",
    "description": "Leashed dogs welcome at street seating.",
    "lat": -37.8118919,
    "lng": 145.0131978,
    "geocodeSource": "nominatim"
  },
  {
    "name": "Janet Millman Reserve",
    "address": "24 Railway St Fitzroy North VIC 3068",
    "category": "Park",
    "description": "Dog off-leash area with shared-path leash restrictions.",
    "lat": -37.7801051,
    "lng": 144.9829074,
    "geocodeSource": "nominatim"
  },
  {
    "name": "Jardin Tan",
    "address": "Birdwood Ave South Yarra VIC 3141",
    "category": "Cafe",
    "description": "Dogs welcome in undercover courtyard.",
    "lat": -37.82963,
    "lng": 144.97574,
    "geocodeSource": "manual"
  },
  {
    "name": "Jerry Joy Cafe",
    "address": "128 Mansfield St Thornbury VIC 3071",
    "category": "Cafe",
    "description": "Dog-friendly covered courtyard and outdoor area.",
    "lat": -37.7574685,
    "lng": 145.0097801,
    "geocodeSource": "facebook+nominatim"
  },
  {
    "name": "Joey Smalls",
    "address": "284 Sydney Rd Brunswick VIC 3056",
    "category": "Pub/Bar",
    "description": "Dogs welcome in the outdoor deck area.",
    "lat": -37.771083,
    "lng": 144.961764,
    "geocodeSource": "manual"
  },
  {
    "name": "Jethro Canteen",
    "address": "385-389 Burnley St Richmond VIC 3121",
    "category": "Cafe",
    "description": "Leashed dogs welcome at street seating.",
    "lat": -37.8264195,
    "lng": 145.00722,
    "geocodeSource": "nominatim"
  },
  {
    "name": "Kanteen",
    "address": "154 Alexandra Ave South Yarra VIC 3141",
    "category": "Cafe",
    "description": "Dog-friendly outdoor seating with water bowls and covered patio.",
    "lat": -37.8316524,
    "lng": 145.0050871,
    "geocodeSource": "nominatim"
  },
  {
    "name": "Kent Street Bar",
    "address": "201 Smith St Fitzroy VIC 3065",
    "category": "Pub/Bar",
    "description": "Dog-friendly courtyard with water bowls.",
    "lat": -37.8031528,
    "lng": 144.9833865,
    "geocodeSource": "nominatim"
  },
  {
    "name": "King William Reserve",
    "address": "55 King William St Fitzroy VIC 3065",
    "category": "Park",
    "description": "Dog on-leash area with drinking fountain.",
    "lat": -37.8020324,
    "lng": 144.9764075,
    "geocodeSource": "nominatim"
  },
  {
    "name": "Lawson Grove Shop",
    "address": "1 Lawson Grove South Yarra VIC 3141",
    "category": "Cafe",
    "description": "Dog-friendly streetside tables with water bowls and treats.",
    "lat": -37.8336089,
    "lng": 144.9903397,
    "geocodeSource": "nominatim"
  },
  {
    "name": "Leaf Lane Cafe",
    "address": "14 Luxton Rd South Yarra VIC 3141",
    "category": "Cafe",
    "description": "Dogs welcome at undercover street seating.",
    "lat": -37.8451771,
    "lng": 145.0022051,
    "geocodeSource": "nominatim"
  },
  {
    "name": "Le Gourmet Cakes",
    "address": "271 Brunswick St Fitzroy VIC 3065",
    "category": "Cafe",
    "description": "Dogs welcome at this Brunswick Street cake cafe.",
    "lat": -37.79928,
    "lng": 144.97815,
    "geocodeSource": "facebook+manual"
  },
  {
    "name": "Leonard's House of Love",
    "address": "3 Wilson St South Yarra VIC 3141",
    "category": "Pub/Bar",
    "description": "Dogs welcome in heated undercover courtyard.",
    "lat": -37.8436508,
    "lng": 144.9956175,
    "geocodeSource": "nominatim"
  },
  {
    "name": "Little Local",
    "address": "299 High St Northcote VIC 3070",
    "category": "Cafe",
    "description": "Dogs welcome in rear garden with treats available.",
    "lat": -37.7716643,
    "lng": 144.9983866,
    "geocodeSource": "nominatim"
  },
  {
    "name": "Lost and Found Market",
    "address": "288 Brunswick St Fitzroy VIC 3065",
    "category": "Shop",
    "description": "Leashed dogs welcome while browsing the vintage market.",
    "lat": -37.798486,
    "lng": 144.97865,
    "geocodeSource": "manual",
    "instagramUrl": "https://www.instagram.com/lostandfoundmarket/"
  },
  {
    "name": "Lulie Tavern",
    "address": "225 Johnston St Abbotsford VIC 3067",
    "category": "Pub/Bar",
    "description": "Dogs welcome inside and in the courtyard.",
    "lat": -37.8000264,
    "lng": 144.9936498,
    "geocodeSource": "nominatim"
  },
  {
    "name": "Marquis of Lorne",
    "address": "411 George St Fitzroy VIC 3065",
    "category": "Pub/Bar",
    "description": "Leashed dogs welcome inside and at street seating.",
    "lat": -37.7972297,
    "lng": 144.9819606,
    "geocodeSource": "nominatim"
  },
  {
    "name": "Mavis the Grocer",
    "address": "197 Vere St Abbotsford VIC 3067",
    "category": "Cafe",
    "description": "Dogs welcome in undercover courtyard.",
    "lat": -37.8030269,
    "lng": 144.9970286,
    "geocodeSource": "nominatim"
  },
  {
    "name": "Milkwood",
    "address": "120 Nicholson St Brunswick East VIC 3057",
    "category": "Cafe",
    "description": "Dogs welcome at outdoor seating with water bowls and treats.",
    "lat": -37.7628862,
    "lng": 144.9792498,
    "geocodeSource": "nominatim"
  },
  {
    "name": "Mitte Cafe",
    "address": "76 Michael St Fitzroy North VIC 3068",
    "category": "Cafe",
    "description": "Dogs welcome at outdoor seating with treats available.",
    "lat": -37.7857098,
    "lng": 144.9893085,
    "geocodeSource": "manual"
  },
  {
    "name": "Monty's Bar",
    "address": "209 St Georges Rd Fitzroy North VIC 3068",
    "category": "Pub/Bar",
    "description": "Dog-friendly inside and in the covered courtyard.",
    "lat": -37.7841018,
    "lng": 144.9828973,
    "geocodeSource": "nominatim"
  },
  {
    "name": "Mount Erica Hotel",
    "address": "420 High St Prahran VIC 3181",
    "category": "Pub/Bar",
    "description": "Dogs welcome in large courtyards and inside when quiet.",
    "lat": -37.8533532,
    "lng": 145.0026962,
    "geocodeSource": "nominatim"
  },
  {
    "name": "Ned's Bake",
    "address": "134 Toorak Rd South Yarra VIC 3141",
    "category": "Cafe",
    "description": "Dogs welcome in undercover outdoor area.",
    "lat": -37.8390499,
    "lng": 144.990873,
    "geocodeSource": "nominatim"
  },
  {
    "name": "Nighthawks",
    "address": "136 Johnston St Collingwood VIC 3066",
    "category": "Pub/Bar",
    "description": "Listed dog-friendly with outdoor seating.",
    "lat": -37.7993224,
    "lng": 144.9895284,
    "geocodeSource": "nominatim"
  },
  {
    "name": "Norman South Yarra",
    "address": "Shop 2 300 Toorak Rd South Yarra VIC 3141",
    "category": "Cafe",
    "description": "Dogs welcome at undercover street seating.",
    "lat": -37.839839,
    "lng": 144.9972193,
    "geocodeSource": "manual"
  },
  {
    "name": "O'Connells",
    "address": "407 Coventry St South Melbourne VIC 3205",
    "category": "Pub/Bar",
    "description": "Dogs allowed outside with covered umbrella seating.",
    "lat": -37.8321207,
    "lng": 144.9592873,
    "geocodeSource": "nominatim"
  },
  {
    "name": "Oh Loretta",
    "address": "324 High St Northcote VIC 3070",
    "category": "Pub/Bar",
    "description": "Dogs welcome in courtyard and street seating.",
    "lat": -37.7705701,
    "lng": 144.9989262,
    "geocodeSource": "nominatim"
  },
  {
    "name": "Ophelia",
    "address": "85 High St Northcote VIC 3070",
    "category": "Cafe",
    "description": "Dogs welcome at outdoor seating with treats available.",
    "lat": -37.7801923,
    "lng": 144.9966978,
    "geocodeSource": "nominatim"
  },
  {
    "name": "Park Street Reserve",
    "address": "68 Park St Fitzroy North VIC 3068",
    "category": "Park",
    "description": "Dog off-leash area with leash restrictions near playgrounds and shared paths.",
    "lat": -37.781515,
    "lng": 144.9869188,
    "geocodeSource": "nominatim"
  },
  {
    "name": "Pendant Public Bar",
    "address": "334 Brunswick St Fitzroy VIC 3065",
    "category": "Pub/Bar",
    "description": "Dog-friendly bar where dogs are welcomed inside.",
    "lat": -37.7972971,
    "lng": 144.9788733,
    "geocodeSource": "nominatim"
  },
  {
    "name": "Pilgrim Bar",
    "address": "15-19 Federation Wharf Melbourne VIC 3000",
    "category": "Pub/Bar",
    "description": "Dogs welcome in undercover courtyard and street seating.",
    "lat": -37.8187898,
    "lng": 144.969469,
    "geocodeSource": "nominatim"
  },
  {
    "name": "Pillar of Salt",
    "address": "541 Church St Richmond VIC 3121",
    "category": "Cafe",
    "description": "Dogs welcome in courtyard and street seating.",
    "lat": -37.8296726,
    "lng": 144.9974247,
    "geocodeSource": "nominatim"
  },
  {
    "name": "Prahran Hotel",
    "address": "82 High St Prahran VIC 3181",
    "category": "Pub/Bar",
    "description": "Dogs welcome in courtyard areas.",
    "lat": -37.8513691,
    "lng": 144.9885113,
    "geocodeSource": "nominatim"
  },
  {
    "name": "Prince Alfred Hotel",
    "address": "619 Church St Richmond VIC 3121",
    "category": "Pub/Bar",
    "description": "Dogs welcome in covered beer garden with water bowls.",
    "lat": -37.8320985,
    "lng": 144.9968811,
    "geocodeSource": "nominatim"
  },
  {
    "name": "Quarries Park",
    "address": "41 Ramsden St Clifton Hill VIC 3068",
    "category": "Park",
    "description": "Designated dog off-leash areas with sportsground restrictions.",
    "lat": -37.7906213,
    "lng": 144.9967427,
    "geocodeSource": "nominatim"
  },
  {
    "name": "Republica",
    "address": "10-18 Jacka Blvd St Kilda VIC 3182",
    "category": "Pub/Bar",
    "description": "Dogs allowed in large outdoor courtyard with water bowls.",
    "lat": -37.8656234,
    "lng": 144.9720318,
    "geocodeSource": "nominatim"
  },
  {
    "name": "Rice Paper Scissors",
    "address": "307 Brunswick St Fitzroy VIC 3065",
    "category": "Cafe",
    "description": "Dogs welcome in the outdoor seating area.",
    "lat": -37.7978448,
    "lng": 144.978284,
    "geocodeSource": "nominatim"
  },
  {
    "name": "Riverland Bar",
    "address": "Federation Wharf Vaults 1-9 Melbourne VIC 3000",
    "category": "Pub/Bar",
    "description": "Dogs welcome in heated undercover courtyard.",
    "lat": -37.8187191,
    "lng": 144.9687043,
    "geocodeSource": "manual"
  },
  {
    "name": "Rochester Hotel",
    "address": "202 Johnston St Fitzroy VIC 3065",
    "category": "Pub/Bar",
    "description": "Dogs welcome in indoor and outdoor areas with water bowls.",
    "lat": -37.7988193,
    "lng": 144.9816836,
    "geocodeSource": "nominatim"
  },
  {
    "name": "Royal Saxon",
    "address": "545 Church St Richmond VIC 3121",
    "category": "Pub/Bar",
    "description": "Leashed dogs welcome in heated undercover courtyard.",
    "lat": -37.8297837,
    "lng": 144.9974954,
    "geocodeSource": "nominatim"
  },
  {
    "name": "Rushall Reserve",
    "address": "267 Holden St Fitzroy North VIC 3068",
    "category": "Park",
    "description": "Dogs may be exercised off-leash outside wetland and Merri Creek bank areas.",
    "lat": -37.7802439,
    "lng": 144.9906055,
    "geocodeSource": "nominatim"
  },
  {
    "name": "Smith Reserve",
    "address": "Smith Reserve Cecil Street Fitzroy VIC 3065",
    "category": "Park",
    "description": "Dog off-leash area with drinking fountain and playground restrictions.",
    "lat": -37.7945291,
    "lng": 144.9819942,
    "geocodeSource": "manual"
  },
  {
    "name": "SOS Cafe",
    "address": "Unit 5 177 Toorak Rd South Yarra VIC 3141",
    "category": "Cafe",
    "description": "Dogs welcome in courtyard and street seating.",
    "lat": -37.8389602,
    "lng": 144.993147,
    "geocodeSource": "manual"
  },
  {
    "name": "South of Johnston",
    "address": "46 Oxford St Collingwood VIC 3066",
    "category": "Cafe",
    "description": "Dogs welcome in outdoor seating and a dog-friendly indoor area.",
    "lat": -37.8060035,
    "lng": 144.9846903,
    "geocodeSource": "facebook+nominatim",
    "instagramUrl": "https://www.instagram.com/southofjohnston/"
  },
  {
    "name": "Speakeasy Kitchen Bar",
    "address": "359 Chapel St South Yarra VIC 3141",
    "category": "Pub/Bar",
    "description": "Dogs welcome in courtyard and street seating.",
    "lat": -37.8463496,
    "lng": 144.9940857,
    "geocodeSource": "nominatim"
  },
  {
    "name": "Sporting Club Hotel",
    "address": "27 Weston St Brunswick VIC 3056",
    "category": "Pub/Bar",
    "description": "Dogs welcome in the front bar, beer garden and outdoor seating.",
    "lat": -37.7748361,
    "lng": 144.9632853,
    "geocodeSource": "facebook+nominatim"
  },
  {
    "name": "Stillman Cafe",
    "address": "237 Burnley St Richmond VIC 3121",
    "category": "Cafe",
    "description": "Dogs welcome in undercover courtyard.",
    "lat": -37.8216199,
    "lng": 145.0081509,
    "geocodeSource": "nominatim"
  },
  {
    "name": "Stomping Ground Brewery & Beer Hall",
    "address": "100 Gipps St Collingwood VIC 3066",
    "category": "Pub/Bar",
    "description": "Leashed dogs welcome in the heated undercover courtyard.",
    "instagramUrl": "https://www.instagram.com/stompinggroundbeer/",
    "lat": -37.8045616,
    "lng": 144.9908005,
    "geocodeSource": "facebook+nominatim"
  },
  {
    "name": "Sugar Glider Bar",
    "address": "56 Johnston St Fitzroy VIC 3065",
    "category": "Pub/Bar",
    "description": "Dog-friendly bar with outdoor seating.",
    "instagramUrl": "https://www.instagram.com/sugargliderbar/",
    "lat": -37.7983041,
    "lng": 144.9765237,
    "geocodeSource": "csv"
  },
  {
    "name": "Taita's Lebanese Kitchen",
    "address": "73 Clarendon St Thornbury VIC 3071",
    "category": "Cafe",
    "description": "Dogs welcome in the patio courtyard.",
    "lat": -37.7598919,
    "lng": 145.0052674,
    "geocodeSource": "facebook+nominatim"
  },
  {
    "name": "Tallboy & Moose",
    "address": "270 Raglan St Preston VIC 3072",
    "category": "Pub/Bar",
    "description": "Dogs welcome indoors and on the patio with dog bowls.",
    "instagramUrl": "https://www.instagram.com/tallboyandmoose/",
    "lat": -37.7486826,
    "lng": 145.0028763,
    "geocodeSource": "facebook+nominatim"
  },
  {
    "name": "Tall Timber Cafe",
    "address": "60 Commercial Rd Prahran VIC 3181",
    "category": "Cafe",
    "description": "Dogs welcome in courtyard and street seating.",
    "lat": -37.8461691,
    "lng": 144.9881461,
    "geocodeSource": "nominatim"
  },
  {
    "name": "Temperance Hotel",
    "address": "426 Chapel St South Yarra VIC 3141",
    "category": "Pub/Bar",
    "description": "Dog-friendly outdoor areas with water bowls.",
    "lat": -37.8446255,
    "lng": 144.9947964,
    "geocodeSource": "nominatim"
  },
  {
    "name": "The Albion",
    "address": "172 York St South Melbourne VIC 3205",
    "category": "Pub/Bar",
    "description": "User-recommended dog-friendly rooftop and outdoor venue.",
    "lat": -37.8315664,
    "lng": 144.9560233,
    "geocodeSource": "nominatim"
  },
  {
    "name": "The B.East",
    "address": "80 Lygon St Brunswick East VIC 3057",
    "category": "Pub/Bar",
    "description": "Leashed dogs welcome at street seating.",
    "lat": -37.7762895,
    "lng": 144.9711737,
    "geocodeSource": "nominatim"
  },
  {
    "name": "The Empress Hotel",
    "address": "708-714 Nicholson St Fitzroy North VIC 3068",
    "category": "Pub/Bar",
    "description": "Dog-friendly beer garden with water bowls and covered patio.",
    "lat": -37.7827837,
    "lng": 144.9779257,
    "geocodeSource": "nominatim"
  },
  {
    "name": "The Esplanade Hotel",
    "address": "11 The Esplanade St Kilda VIC 3182",
    "category": "Pub/Bar",
    "description": "Dogs welcome in front beer garden.",
    "lat": -37.8640582,
    "lng": 144.973013,
    "geocodeSource": "nominatim"
  },
  {
    "name": "The Farm Cafe",
    "address": "18 St Heliers St Abbotsford VIC 3067",
    "category": "Cafe",
    "description": "Dogs welcome in shaded alfresco courtyard with water.",
    "lat": -37.8030279,
    "lng": 145.0057409,
    "geocodeSource": "nominatim"
  },
  {
    "name": "The Fitzroy Beer Garden",
    "address": "243 Gertrude St Fitzroy VIC 3065",
    "category": "Pub/Bar",
    "description": "Dog-friendly beer garden with covered patio.",
    "lat": -37.8062207,
    "lng": 144.9825807,
    "geocodeSource": "nominatim"
  },
  {
    "name": "The Fox Hotel",
    "address": "351 Wellington St Collingwood VIC 3066",
    "category": "Pub/Bar",
    "description": "Dogs welcome in courtyard and rooftop areas with water bowls.",
    "lat": -37.7945169,
    "lng": 144.9878886,
    "geocodeSource": "nominatim"
  },
  {
    "name": "The Grace Darling Hotel",
    "address": "114 Smith St Collingwood VIC 3066",
    "category": "Pub/Bar",
    "description": "Listed dog-friendly with outdoor areas.",
    "lat": -37.804851,
    "lng": 144.983442,
    "geocodeSource": "nominatim"
  },
  {
    "name": "The Kettle Black",
    "address": "50 Albert Rd South Melbourne VIC 3205",
    "category": "Cafe",
    "description": "Dog-friendly courtyard with water bowls and covered patio.",
    "lat": -37.8341251,
    "lng": 144.9713427,
    "geocodeSource": "nominatim"
  },
  {
    "name": "The Keys",
    "address": "1/188 Plenty Rd Preston VIC 3072",
    "category": "Pub/Bar",
    "description": "Dogs welcome in the courtyard.",
    "instagramUrl": "https://www.instagram.com/thekeyspreston/",
    "lat": -37.7468183,
    "lng": 145.0058527,
    "geocodeSource": "facebook+nominatim"
  },
  {
    "name": "The Local Taphouse",
    "address": "184 Carlisle St St Kilda East VIC 3183",
    "category": "Pub/Bar",
    "description": "Dogs welcome on deck and in beer garden with water available.",
    "lat": -37.8681208,
    "lng": 144.989994,
    "geocodeSource": "manual"
  },
  {
    "name": "The Lord Newry Hotel",
    "address": "543 Brunswick St Fitzroy North VIC 3068",
    "category": "Pub/Bar",
    "description": "Dog-friendly pub near Edinburgh Gardens.",
    "lat": -37.7908244,
    "lng": 144.9795311,
    "geocodeSource": "nominatim"
  },
  {
    "name": "The Mill Brewery",
    "address": "40 Sackville St Collingwood VIC 3066",
    "category": "Pub/Bar",
    "description": "Dogs welcome inside and in covered areas with water bowls.",
    "lat": -37.7982615,
    "lng": 144.9860039,
    "geocodeSource": "nominatim"
  },
  {
    "name": "The National Hotel",
    "address": "344 Victoria St Richmond VIC 3121",
    "category": "Pub/Bar",
    "description": "Dogs welcome in partially covered beer garden with water bowls.",
    "lat": -37.8109133,
    "lng": 145.0028288,
    "geocodeSource": "nominatim"
  },
  {
    "name": "The Palace Hotel",
    "address": "505-507 City Rd South Melbourne VIC 3205",
    "category": "Pub/Bar",
    "description": "Dogs allowed in beer garden with water bowls and heaters.",
    "lat": -37.8340778,
    "lng": 144.9501509,
    "geocodeSource": "nominatim"
  },
  {
    "name": "The Park Hotel Abbotsford",
    "address": "191 Nicholson St Abbotsford VIC 3067",
    "category": "Pub/Bar",
    "description": "Dogs welcome in street seating and covered courtyard.",
    "lat": -37.8028466,
    "lng": 144.9970225,
    "geocodeSource": "nominatim",
    "instagramUrl": "https://www.instagram.com/parkhotelabbotsford/"
  },
  {
    "name": "The Punters Club",
    "address": "376 Brunswick St Fitzroy VIC 3065",
    "category": "Pub/Bar",
    "description": "User-recommended dog-friendly pub with outdoor seating.",
    "lat": -37.7960561,
    "lng": 144.9790327,
    "geocodeSource": "nominatim"
  },
  {
    "name": "The Rainbow Hotel",
    "address": "27 St David St Fitzroy VIC 3065",
    "category": "Pub/Bar",
    "description": "Dogs welcome in the covered courtyard with water bowls.",
    "lat": -37.8005789,
    "lng": 144.9793433,
    "geocodeSource": "nominatim"
  },
  {
    "name": "The Retreat Hotel",
    "address": "280 Sydney Rd Brunswick VIC 3056",
    "category": "Pub/Bar",
    "description": "Dogs welcome in the beer garden and outdoor seating.",
    "lat": -37.771168,
    "lng": 144.961609,
    "geocodeSource": "facebook+manual"
  },
  {
    "name": "The Rose Hotel",
    "address": "406 Napier St Fitzroy VIC 3065",
    "category": "Pub/Bar",
    "description": "Dog-friendly Fitzroy pub with treats behind the bar.",
    "instagramUrl": "https://www.instagram.com/therosefitzroy/",
    "lat": -37.7955345,
    "lng": 144.9815065,
    "geocodeSource": "facebook+nominatim"
  },
  {
    "name": "The Shady Lady",
    "address": "36 Johnston St Fitzroy VIC 3065",
    "category": "Pub/Bar",
    "description": "Dogs welcome in indoor and beer garden areas until 10pm.",
    "lat": -37.7982507,
    "lng": 144.9760194,
    "geocodeSource": "nominatim"
  },
  {
    "name": "The Standard Hotel",
    "address": "293 Fitzroy St Fitzroy VIC 3065",
    "category": "Pub/Bar",
    "description": "Dog-friendly beer garden.",
    "lat": -37.8007515,
    "lng": 144.9768301,
    "geocodeSource": "nominatim"
  },
  {
    "name": "The Swan Hotel",
    "address": "425 Church St Richmond VIC 3121",
    "category": "Pub/Bar",
    "description": "Dog-friendly pub with beer garden and water bowls.",
    "lat": -37.8341639,
    "lng": 144.9966058,
    "geocodeSource": "nominatim"
  },
  {
    "name": "The Terminus Hotel",
    "address": "605 Victoria St Abbotsford VIC 3067",
    "category": "Pub/Bar",
    "description": "Dogs welcome in leafy beer garden with water bowls.",
    "lat": -37.8109749,
    "lng": 145.0072652,
    "geocodeSource": "nominatim"
  },
  {
    "name": "The Tipsy Cow Malt and Wine",
    "address": "361 Bay St Port Melbourne VIC 3207",
    "category": "Pub/Bar",
    "description": "Dogs welcome indoors and in dog-friendly courtyard.",
    "lat": -37.83525,
    "lng": 144.945172,
    "geocodeSource": "nominatim"
  },
  {
    "name": "The Tramway Hotel",
    "address": "165 Rae St Fitzroy North VIC 3068",
    "category": "Pub/Bar",
    "description": "Dogs welcome in the small courtyard.",
    "lat": -37.7885137,
    "lng": 144.9789774,
    "geocodeSource": "facebook+nominatim"
  },
  {
    "name": "Uitgang Bar",
    "address": "406 Bridge Rd Richmond VIC 3121",
    "category": "Pub/Bar",
    "description": "Dogs welcome inside courtyard and street seating.",
    "lat": -37.8194622,
    "lng": 145.0049634,
    "geocodeSource": "nominatim"
  },
  {
    "name": "Union Club Hotel",
    "address": "164 Gore St Fitzroy VIC 3065",
    "category": "Pub/Bar",
    "description": "Dogs welcome in courtyard rooftop and street areas.",
    "lat": -37.8038783,
    "lng": 144.9824011,
    "geocodeSource": "nominatim"
  },
  {
    "name": "Victoria Gardens",
    "address": "52 Murray St Prahran VIC 3181",
    "category": "Park",
    "description": "Sunken garden is designated for dog off-leash exercise.",
    "lat": -37.8505481,
    "lng": 145.0005509,
    "geocodeSource": "nominatim"
  },
  {
    "name": "Victoria Park Dog Off Leash Area",
    "address": "22 Lulie St Abbotsford VIC 3067",
    "category": "Park",
    "description": "Dogs allowed off-leash on the oval when sports grounds are not in use.",
    "lat": -37.796984,
    "lng": 144.9956933,
    "geocodeSource": "nominatim"
  },
  {
    "name": "Welcome to Brunswick",
    "address": "1 Frith St Brunswick VIC 3056",
    "category": "Pub/Bar",
    "description": "Dogs welcome inside and in covered beer garden areas.",
    "lat": -37.7684063,
    "lng": 144.9628364,
    "geocodeSource": "nominatim"
  },
  {
    "name": "Welcome to Thornbury",
    "address": "520 High St Northcote VIC 3070",
    "category": "Pub/Bar",
    "description": "Large dog-friendly open-air seating area with water bowls.",
    "lat": -37.7646905,
    "lng": 144.9999947,
    "geocodeSource": "nominatim"
  },
  {
    "name": "Wesley Anne",
    "address": "250 High St Northcote VIC 3070",
    "category": "Pub/Bar",
    "description": "Dogs welcome on the front and rear patios.",
    "lat": -37.7729134,
    "lng": 144.9984324,
    "geocodeSource": "facebook+nominatim"
  },
  {
    "name": "West Beach Bathers Pavilion",
    "address": "330A Beaconsfield Parade St Kilda West VIC 3182",
    "category": "Pub/Bar",
    "description": "Dog-friendly beachside venue with water bowls and covered patio.",
    "lat": -37.8582156,
    "lng": 144.9684327,
    "geocodeSource": "nominatim"
  },
  {
    "name": "Wonderland",
    "address": "37 Chapel St Windsor VIC 3181",
    "category": "Pub/Bar",
    "description": "Dog-friendly bar with covered outdoor area.",
    "lat": -37.8557999,
    "lng": 144.9924611,
    "geocodeSource": "nominatim"
  },
  {
    "name": "Yarra Hotel",
    "address": "295 Johnston St Abbotsford VIC 3067",
    "category": "Pub/Bar",
    "description": "Dogs welcome in undercover beer garden with water bowls.",
    "lat": -37.7998417,
    "lng": 144.9930048,
    "geocodeSource": "nominatim"
  },
  {
    "name": "Yellow Bird",
    "address": "122A Chapel St Windsor VIC 3181",
    "category": "Pub/Bar",
    "description": "Dogs welcome outside with cover and water bowls.",
    "lat": -37.8551783,
    "lng": 144.9927429,
    "geocodeSource": "manual"
  },
  {
    "name": "Alphington Park",
    "address": "28 Parkview Rd Alphington VIC 3078",
    "category": "Park",
    "description": "Dogs allowed off-leash before 10am and after 5pm.",
    "geocodeSource": "yarra+nominatim",
    "lat": -37.78405,
    "lng": 145.0298326
  },
  {
    "name": "Annette's Place",
    "address": "5 River St Richmond VIC 3121",
    "category": "Park",
    "description": "Council-listed dog off-leash reserve near the Yarra River.",
    "geocodeSource": "yarra+nominatim",
    "lat": -37.814488,
    "lng": 145.0138422
  },
  {
    "name": "Burnley Park",
    "address": "150 Yarra Blvd Richmond VIC 3121",
    "category": "Park",
    "description": "Dog off-leash area; dogs prohibited on sports grounds during organised sport.",
    "geocodeSource": "yarra+nominatim",
    "lat": -37.8250151,
    "lng": 145.0147064
  },
  {
    "name": "Coate Park",
    "address": "14 Yarraford Ave Alphington VIC 3078",
    "category": "Park",
    "description": "Dog off-leash area in the northern section of the park.",
    "geocodeSource": "yarra+nominatim",
    "lat": -37.7856007,
    "lng": 145.0226996
  },
  {
    "name": "Coulson Reserve",
    "address": "1 Heidelberg Rd Clifton Hill VIC 3068",
    "category": "Park",
    "description": "Dogs allowed off-leash on unfenced sports grounds when not in use.",
    "geocodeSource": "yarra+nominatim",
    "lat": -37.7858895,
    "lng": 144.997391
  },
  {
    "name": "Dame Nellie Melba Memorial Park",
    "address": "Coppin St Richmond VIC 3121",
    "category": "Park",
    "description": "Dogs allowed off-leash before 9am and after 5pm.",
    "geocodeSource": "yarra+nominatim",
    "lat": -37.821448,
    "lng": 145.0029281
  },
  {
    "name": "Fairfield Park",
    "address": "Fairfield Park Dr Fairfield VIC 3078",
    "category": "Park",
    "description": "Dogs allowed off-leash when sports grounds are not in use.",
    "geocodeSource": "yarra+nominatim",
    "lat": -37.7856515,
    "lng": 145.0123632
  },
  {
    "name": "Golden Square Bicentennial Park",
    "address": "Madden Grove Burnley VIC 3121",
    "category": "Park",
    "description": "Dogs allowed off-leash away from playgrounds, barbecues and picnic areas.",
    "geocodeSource": "yarra+nominatim",
    "lat": -37.8285049,
    "lng": 145.0100074
  },
  {
    "name": "Hall Reserve",
    "address": "The Esplanade Clifton Hill VIC 3068",
    "category": "Park",
    "description": "Dogs allowed off-leash away from playgrounds.",
    "geocodeSource": "yarra+nominatim",
    "lat": -37.7866691,
    "lng": 145.0054576
  },
  {
    "name": "Hardy Gallagher Reserve",
    "address": "21 Solly Ave Princes Hill VIC 3054",
    "category": "Park",
    "description": "Dogs allowed off-leash away from playgrounds and community growing areas.",
    "geocodeSource": "yarra+nominatim",
    "lat": -37.7795124,
    "lng": 144.9657902
  },
  {
    "name": "Kevin Bartlett Reserve",
    "address": "F R Smith Dr Burnley VIC 3121",
    "category": "Park",
    "description": "Dogs allowed off-leash when sports grounds are not in use.",
    "geocodeSource": "yarra+nominatim",
    "lat": -37.8318228,
    "lng": 145.0249649
  },
  {
    "name": "Langdon Reserve",
    "address": "Corner Nicholson St and Miller St Fitzroy North VIC 3068",
    "category": "Park",
    "description": "Dog off-leash park except within the playground.",
    "geocodeSource": "yarra+nominatim",
    "lat": -37.7767846,
    "lng": 144.9791592
  },
  {
    "name": "Linear Parklands",
    "address": "100 Rushall Crescent Fitzroy North VIC 3068",
    "category": "Park",
    "description": "Dogs allowed off-leash away from the shared trail and 5 metres either side.",
    "geocodeSource": "yarra+nominatim",
    "lat": -37.7833268,
    "lng": 144.9910706
  },
  {
    "name": "Ramsden Street Reserve",
    "address": "110 Field St Clifton Hill VIC 3068",
    "category": "Park",
    "description": "Dogs allowed off-leash on unfenced sports grounds when not in use.",
    "geocodeSource": "yarra+nominatim",
    "lat": -37.7921898,
    "lng": 145.0033601
  },
  {
    "name": "T H Westfield Reserve",
    "address": "Corner Yarra Bend Rd and Heidelberg Rd Clifton Hill VIC 3068",
    "category": "Park",
    "description": "Council-listed dog off-leash reserve with leash restrictions near picnic areas and paths.",
    "geocodeSource": "yarra+manual",
    "lat": -37.7896861,
    "lng": 145.0088944
  },
  {
    "name": "Yarra Bend Park",
    "address": "Yarra Bend Rd Fairfield VIC 3078",
    "category": "Park",
    "description": "Includes designated dog off-leash areas.",
    "geocodeSource": "yarra+nominatim",
    "lat": -37.7937526,
    "lng": 145.0107027
  },
  {
    "name": "Canning and Neill Street Reserve",
    "address": "2 Neill St Carlton VIC 3053",
    "category": "Park",
    "description": "Timed dog off-leash area.",
    "geocodeSource": "melbourne+nominatim",
    "lat": -37.7930779,
    "lng": 144.9739746
  },
  {
    "name": "Clayton Reserve",
    "address": "204 Macaulay Rd North Melbourne VIC 3051",
    "category": "Park",
    "description": "Large fenced dog off-leash park.",
    "geocodeSource": "melbourne+nominatim",
    "lat": -37.7960118,
    "lng": 144.9390709
  },
  {
    "name": "Gosch's Paddock",
    "address": "Olympic Blvd Melbourne VIC 3004",
    "category": "Park",
    "description": "Dogs allowed off-leash in grassy areas between the ovals.",
    "geocodeSource": "melbourne+nominatim",
    "lat": -37.8259527,
    "lng": 144.9868017
  },
  {
    "name": "Kings Way and Moray Street Reserve",
    "address": "Moray St Southbank VIC 3006",
    "category": "Park",
    "description": "Fully fenced off-leash dog park with dog play equipment and drinking fountain.",
    "geocodeSource": "melbourne+nominatim",
    "lat": -37.8271239,
    "lng": 144.9606687
  },
  {
    "name": "North Melbourne Recreation Reserve",
    "address": "204-206 Arden St North Melbourne VIC 3051",
    "category": "Park",
    "description": "Dog off-leash area around Arden Oval.",
    "geocodeSource": "melbourne+nominatim",
    "lat": -37.7991416,
    "lng": 144.9414086
  },
  {
    "name": "Point Park",
    "address": "104 Lorimer St Docklands VIC 3008",
    "category": "Park",
    "description": "Timed dog off-leash lawns near Yarra's Edge.",
    "geocodeSource": "melbourne+nominatim",
    "lat": -37.8234676,
    "lng": 144.9411745
  },
  {
    "name": "Princes Park",
    "address": "Bowen Crescent Carlton North VIC 3054",
    "category": "Park",
    "description": "Designated off-leash areas including Crawford Oval and Bowen Crescent.",
    "geocodeSource": "melbourne+nominatim",
    "lat": -37.7837511,
    "lng": 144.9618312
  },
  {
    "name": "Riverside Park",
    "address": "93-95 The Crescent Kensington VIC 3031",
    "category": "Park",
    "description": "Timed dog off-leash area.",
    "geocodeSource": "melbourne+nominatim",
    "lat": -37.7631022,
    "lng": 144.8912392
  },
  {
    "name": "Royal Park South",
    "address": "Macarthur Rd Parkville VIC 3052",
    "category": "Park",
    "description": "Council-listed dog off-leash area south of Macarthur Road.",
    "geocodeSource": "melbourne+nominatim",
    "lat": -37.7881362,
    "lng": 144.954963
  },
  {
    "name": "Alma Park",
    "address": "150 Dandenong Rd St Kilda East VIC 3183",
    "category": "Park",
    "description": "Designated dog off-leash areas in Alma Park West and north of the oval in Alma Park East.",
    "geocodeSource": "port-phillip+nominatim",
    "lat": -37.8582927,
    "lng": 144.9936156
  },
  {
    "name": "Eastern Reserve",
    "address": "141 Park St South Melbourne VIC 3205",
    "category": "Park",
    "description": "Eastern Reserve North is a fenced dog off-leash park.",
    "geocodeSource": "port-phillip+nominatim",
    "lat": -37.8344728,
    "lng": 144.965799
  },
  {
    "name": "Elwood Park and Foreshore",
    "address": "Ormond Esplanade Elwood VIC 3184",
    "category": "Park",
    "description": "Large foreshore park with designated dog off-leash areas.",
    "geocodeSource": "port-phillip+nominatim",
    "lat": -37.8909895,
    "lng": 144.9904094
  },
  {
    "name": "Garden City Reserve",
    "address": "Beacon Rd and Crichton Ave Port Melbourne VIC 3207",
    "category": "Park",
    "description": "Dogs permitted off-leash away from the playground.",
    "geocodeSource": "port-phillip+nominatim",
    "lat": -37.8365345,
    "lng": 144.9298458
  },
  {
    "name": "Gasworks Arts Park",
    "address": "21 Graham St Albert Park VIC 3206",
    "category": "Park",
    "description": "Council-listed dog off-leash arts park.",
    "geocodeSource": "port-phillip+nominatim",
    "lat": -37.8424949,
    "lng": 144.9469359
  },
  {
    "name": "Howe Reserve",
    "address": "Corner Station St and Ingles St Port Melbourne VIC 3207",
    "category": "Park",
    "description": "Reserve with a council-listed dog off-leash area.",
    "geocodeSource": "port-phillip+nominatim",
    "lat": -37.8328858,
    "lng": 144.9447551
  },
  {
    "name": "Lagoon Reserve",
    "address": "Graham St Port Melbourne VIC 3207",
    "category": "Park",
    "description": "Dogs permitted off-leash away from playground and picnic areas.",
    "geocodeSource": "port-phillip+nominatim",
    "lat": -37.8410977,
    "lng": 144.9443465
  },
  {
    "name": "Moran Reserve",
    "address": "Marine Parade St Kilda VIC 3182",
    "category": "Park",
    "description": "Council-listed dog off-leash reserve on Marine Parade.",
    "geocodeSource": "port-phillip+nominatim",
    "lat": -37.8687513,
    "lng": 144.9756163
  },
  {
    "name": "Peanut Farm Reserve",
    "address": "Corner Chaucer St and Blessington St St Kilda VIC 3182",
    "category": "Park",
    "description": "Dog off-leash sports reserve; check temporary sportsground closures.",
    "geocodeSource": "port-phillip+nominatim",
    "lat": -37.8700115,
    "lng": 144.9785777
  },
  {
    "name": "R.F. Julier Reserve",
    "address": "Corner Dunstan Parade and Edina Ave Port Melbourne VIC 3207",
    "category": "Park",
    "description": "Council-listed dog off-leash reserve with paths and picnic areas.",
    "geocodeSource": "port-phillip+nominatim",
    "lat": -37.8378376,
    "lng": 144.9227001
  },
  {
    "name": "A G Gillon Oval",
    "address": "78 Pearson St Brunswick VIC 3056",
    "category": "Park",
    "description": "Council-listed dog off-leash area.",
    "geocodeSource": "merri-bek+nominatim",
    "lat": -37.7642566,
    "lng": 144.9499027
  },
  {
    "name": "Abrahams Reserve",
    "address": "50-72 Harrison St Brunswick East VIC 3057",
    "category": "Park",
    "description": "Council-listed dog off-leash reserve.",
    "geocodeSource": "merri-bek+nominatim",
    "lat": -37.7585419,
    "lng": 144.9805399
  },
  {
    "name": "Balfe Park",
    "address": "54-64 John St Brunswick East VIC 3057",
    "category": "Park",
    "description": "Council-listed dog off-leash reserve.",
    "geocodeSource": "merri-bek+nominatim",
    "lat": -37.7745266,
    "lng": 144.9775218
  },
  {
    "name": "Brady Reserve",
    "address": "229 Hope St Brunswick West VIC 3055",
    "category": "Park",
    "description": "Council-listed dog off-leash reserve.",
    "geocodeSource": "merri-bek+nominatim",
    "lat": -37.7628603,
    "lng": 144.9386904
  },
  {
    "name": "Clifton Park",
    "address": "377 Albert St Brunswick VIC 3056",
    "category": "Park",
    "description": "Council-listed dog off-leash park.",
    "geocodeSource": "merri-bek+nominatim",
    "lat": -37.7668702,
    "lng": 144.9541198
  },
  {
    "name": "Dunstan Reserve",
    "address": "24 Peacock St Brunswick West VIC 3055",
    "category": "Park",
    "description": "Council-listed dog off-leash reserve.",
    "geocodeSource": "merri-bek+nominatim",
    "lat": -37.7548657,
    "lng": 144.9400639
  },
  {
    "name": "Fleming Park",
    "address": "47-51 Albert St Brunswick East VIC 3057",
    "category": "Park",
    "description": "Council-listed dog off-leash reserve.",
    "geocodeSource": "merri-bek+nominatim",
    "lat": -37.7692087,
    "lng": 144.9758939
  },
  {
    "name": "Fraser Reserve",
    "address": "16-24 Hopetoun Ave Brunswick West VIC 3055",
    "category": "Park",
    "description": "Council-listed dog off-leash reserve.",
    "geocodeSource": "merri-bek+nominatim",
    "lat": -37.7552208,
    "lng": 144.9356804
  },
  {
    "name": "Gilpin Park",
    "address": "348-374 Albert St Brunswick VIC 3056",
    "category": "Park",
    "description": "Council-listed off-leash park with enclosed dog park area.",
    "geocodeSource": "merri-bek+nominatim",
    "lat": -37.7686088,
    "lng": 144.950198
  },
  {
    "name": "Holbrook Reserve",
    "address": "8 Jewell Crescent Brunswick West VIC 3055",
    "category": "Park",
    "description": "Council-listed dog off-leash reserve.",
    "geocodeSource": "merri-bek+nominatim",
    "lat": -37.7702694,
    "lng": 144.9361781
  },
  {
    "name": "Jones Park",
    "address": "9-23 Albion St Brunswick East VIC 3057",
    "category": "Park",
    "description": "Council-listed dog off-leash reserve.",
    "geocodeSource": "merri-bek+nominatim",
    "lat": -37.7618722,
    "lng": 144.9794161
  },
  {
    "name": "Kirkdale Park",
    "address": "31 Kirkdale St Brunswick East VIC 3057",
    "category": "Park",
    "description": "Council-listed dog off-leash reserve.",
    "geocodeSource": "merri-bek+nominatim",
    "lat": -37.7701943,
    "lng": 144.9834741
  },
  {
    "name": "Methven Park",
    "address": "7 Methven St Brunswick East VIC 3057",
    "category": "Park",
    "description": "Council-listed dog off-leash reserve.",
    "geocodeSource": "merri-bek+nominatim",
    "lat": -37.7715051,
    "lng": 144.9732623
  },
  {
    "name": "Phillips Reserve",
    "address": "2-10 Weigall St Brunswick East VIC 3057",
    "category": "Park",
    "description": "Council-listed dog off-leash reserve.",
    "geocodeSource": "merri-bek+nominatim",
    "lat": -37.768406,
    "lng": 144.9839986
  },
  {
    "name": "Reaburn Reserve",
    "address": "72 Pearson St Brunswick VIC 3056",
    "category": "Park",
    "description": "Council-listed dog off-leash reserve.",
    "geocodeSource": "merri-bek+nominatim",
    "lat": -37.7645525,
    "lng": 144.9496529
  },
  {
    "name": "Roberts Reserve",
    "address": "50-72 Harrison St Brunswick East VIC 3057",
    "category": "Park",
    "description": "Council-listed dog off-leash reserve.",
    "geocodeSource": "merri-bek+nominatim",
    "lat": -37.7610966,
    "lng": 144.9817953
  },
  {
    "name": "Sheils Reserve",
    "address": "306 Hope St Brunswick West VIC 3055",
    "category": "Park",
    "description": "Council-listed dog off-leash reserve.",
    "geocodeSource": "merri-bek+nominatim",
    "lat": -37.7608016,
    "lng": 144.9400933
  },
  {
    "name": "Sumner Park",
    "address": "3 Alister St Brunswick East VIC 3057",
    "category": "Park",
    "description": "Council-listed dog off-leash reserve.",
    "geocodeSource": "merri-bek+nominatim",
    "lat": -37.7741846,
    "lng": 144.9855827
  },
  {
    "name": "Wylie Reserve",
    "address": "256-264 Union St Brunswick West VIC 3055",
    "category": "Park",
    "description": "Council-listed dog off-leash reserve.",
    "geocodeSource": "merri-bek+nominatim",
    "lat": -37.771447,
    "lng": 144.9439548
  },
  {
    "name": "All Nations Park",
    "address": "Separation St Northcote VIC 3070",
    "category": "Park",
    "description": "Dogs off-lead only in the designated area off Brickworks Lane.",
    "geocodeSource": "darebin+nominatim",
    "lat": -37.7679679,
    "lng": 145.0055364
  },
  {
    "name": "Hayes Park",
    "address": "143 Flinders St Thornbury VIC 3071",
    "category": "Park",
    "description": "Council-listed dog off-lead park.",
    "geocodeSource": "darebin+nominatim",
    "lat": -37.7571202,
    "lng": 145.0179595
  },
  {
    "name": "Henderson Park",
    "address": "3 Watt St Thornbury VIC 3071",
    "category": "Park",
    "description": "Council-listed dog off-lead park.",
    "geocodeSource": "darebin+nominatim",
    "lat": -37.7540477,
    "lng": 144.9969817
  },
  {
    "name": "Mayer Park",
    "address": "141 Normanby Ave Thornbury VIC 3071",
    "category": "Park",
    "description": "Council-listed dog off-lead park.",
    "geocodeSource": "darebin+nominatim",
    "lat": -37.7581281,
    "lng": 144.9869988
  },
  {
    "name": "McDonnell Park",
    "address": "68 Clifton St Northcote VIC 3070",
    "category": "Park",
    "description": "Council-listed dog off-lead park.",
    "geocodeSource": "darebin+nominatim",
    "lat": -37.7684588,
    "lng": 145.016332
  },
  {
    "name": "Merri Park",
    "address": "2 Sumner Ave Northcote VIC 3070",
    "category": "Park",
    "description": "Council-listed dog off-lead park.",
    "geocodeSource": "darebin+nominatim",
    "lat": -37.770437,
    "lng": 144.9849827
  },
  {
    "name": "Penders Park",
    "address": "48A Pender St Thornbury VIC 3071",
    "category": "Park",
    "description": "Council-listed dog off-lead park with toilets and walking paths.",
    "geocodeSource": "darebin+nominatim",
    "lat": -37.7546034,
    "lng": 145.0073415
  },
  {
    "name": "T W Blake Park",
    "address": "82 Gower St Preston VIC 3072",
    "category": "Park",
    "description": "Dogs allowed off-lead outside organised sporting hours.",
    "geocodeSource": "darebin+nominatim",
    "lat": -37.7415996,
    "lng": 145.0250268
  }
]
