Name,Address,Category,Description,Latitude,Longitude,GeocodeSource
7 Grams Cafe,505 Church St Richmond VIC 3121,Cafe,Leashed dogs welcome at street seating.,-37.8286067,144.9976255,nominatim
Abbots Yard,329 Victoria St Abbotsford VIC 3067,Pub/Bar,Dog-friendly outdoor beer garden and communal dining area.,-37.8098774,144.9963564,nominatim
Alimentari Fitzroy Delicatessen,251 Brunswick St Fitzroy VIC 3065,Cafe,Dogs welcome at outdoor pavement tables.,-37.7997308,144.9780654,nominatim
All Are Welcome,190 High St Northcote VIC 3070,Cafe,Dogs welcome in outdoor undercover seating.,-37.7747727,144.9980519,nominatim
Arbory Bar & Eatery,1 Flinders Walk Melbourne VIC 3000,Pub/Bar,Dogs welcome in heated undercover courtyard.,-37.8188647,144.9677115,nominatim
Arcadia Cafe,193 Gertrude St Fitzroy VIC 3065,Cafe,Covered outdoor area with dog bowls.,-37.8059489,144.9810576,nominatim
Atherton Reserve,187 Napier St Fitzroy VIC 3065,Park,Dogs allowed off-leash on unfenced sporting grounds when not in use.,-37.8027268,144.9796112,nominatim
Brookville Gardens,Canterbury Rd Toorak VIC 3142,Park,Designated off-lead garden with dog waste bag dispenser.,-37.8449845,145.0100376,stonnington
Lumley Gardens,Jessamine Ave Prahran VIC 3181,Park,Designated off-lead gardens with lawns and dog-friendly open space.,-37.8575825,145.003432,stonnington
Princes Gardens,Little Chapel St Prahran VIC 3181,Park,Designated off-lead gardens with drinking fountains.,-37.8483542,144.9949491,stonnington
Surrey Park,67-73 Surrey Rd South Yarra VIC 3141,Park,Designated off-lead park with dog waste bags and drinking fountains.,-37.8425684,144.9985345,stonnington
Windsor Siding,104 Union St Windsor VIC 3181,Park,Designated off-lead reserve between Union and Peel streets.,-37.8543718,144.9893011,stonnington
Augie's Place,460 Victoria St Brunswick VIC 3056,Cafe,Dog-friendly cafe with dog treats and drinks.,-37.7657742,144.9506522,facebook+nominatim
Babble Bar & Cafe,4B Izett St Prahran VIC 3181,Cafe,Dog-friendly cafe and bar with water bowls and covered patio.,-37.8489293,144.9922795,manual
Barkly Gardens,Coppin St and Mary St Richmond VIC 3121,Park,Dog on-leash and off-leash zones are marked in the park.,-37.8283779,145.0013798,manual
Beachcomber Cafe,10 Jacka Blvd St Kilda VIC 3182,Cafe,Dogs welcome in front courtyard.,-37.8654075,144.9734395,nominatim
Beermash,306 Smith St Collingwood VIC 3066,Pub/Bar,Leashed dogs welcome inside and at street seating.,-37.8000692,144.984241,nominatim
Bendigo Street Milk Bar,37 Bendigo St Richmond VIC 3121,Cafe,Dogs welcome in courtyard and street seating.,-37.8247533,145.012155,nominatim
Blackcat,252 Brunswick St Fitzroy VIC 3065,Pub/Bar,Dogs welcome in courtyard and street seating with undercover areas.,-37.799889,144.978373,nominatim
Bodriggy Brewing,245 Johnston St Abbotsford VIC 3067,Pub/Bar,Dogs welcome in inside foyer area and at outdoor tables with water bowls.,-37.8001115,144.9945274,nominatim
Bonny,177 Brunswick St Fitzroy VIC 3065,Pub/Bar,Dog-friendly all-weather beer garden.,-37.8021833,144.9776109,nominatim
Bouzy Rouge,470 Bridge Rd Richmond VIC 3121,Pub/Bar,Dog-friendly fully covered courtyard.,-37.8196974,145.0071315,nominatim
Bridie O'Reilly's,462 Chapel St South Yarra VIC 3141,Pub/Bar,Dogs welcome in large outdoor area.,-37.8435623,144.9950056,nominatim
Cafe Gaia,4 Avoca St South Yarra VIC 3141,Cafe,Dog-friendly cafe with outdoor seating.,-37.8382659,144.9893314,nominatim
Cafe Park Lane,387 Clarendon St South Melbourne VIC 3205,Cafe,Dog-friendly cafe with treats available at the counter.,-37.8364806,144.9624621,nominatim
Cafe Piccante,216 St Georges Rd Fitzroy North VIC 3068,Cafe,Dog-friendly cafe with rear courtyard.,-37.7840077,144.9833889,nominatim
Caroline Gardens,Caroline Street South South Yarra VIC 3141,Park,Dog off-lead park with drinking fountains and shade areas.,-37.8395769,144.9877442,nominatim
Carwyn Cellars,877 High St Thornbury VIC 3071,Pub/Bar,Dog-friendly beer garden and outdoor seating.,-37.7540179,145.0012079,facebook+nominatim
Cavallini,354 Queens Parade Fitzroy North VIC 3068,Cafe,Dogs welcome in the courtyard with treats available.,-37.78803,144.99141,manual
Chris Gahan Reserve,19 Hornby St Windsor VIC 3181,Park,Dogs allowed off-leash during designated morning and evening times.,-37.8561685,144.9955747,nominatim
Citizens Park,Corner Church St and Highett St Richmond VIC 3121,Park,Dogs allowed off-leash when sporting grounds are not in use.,-37.8167629,145.0006686,manual
College Lawn Hotel,8/36 Greville St Prahran VIC 3181,Pub/Bar,Dogs welcome in undercover beer garden with water bowls.,-37.8494531,144.9928302,nominatim
Como Park and Thomas Oval Dog Park,23 Como Ave South Yarra VIC 3141,Park,Dogs allowed off-leash in Thomas Oval Dog Park.,-37.8370865,145.0027238,nominatim
Coquette Clothes,Rear 336 Queens Parade Fitzroy North VIC 3068,Shop,Dogs welcome in-store while browsing.,-37.78825,144.99091,manual
Concrete Boots Bar,381 Burnley St Richmond VIC 3121,Pub/Bar,Dogs welcome inside and at heated street seating.,-37.8262768,145.0073904,nominatim
Creatures of Habit Bar & Bandroom,319 Brunswick St Fitzroy VIC 3065,Pub/Bar,Dogs welcome inside and in the beer garden with treats behind the bar.,-37.7975924,144.9783853,facebook+nominatim
Convent Bakery,1 St Heliers St Abbotsford VIC 3067,Cafe,Dogs welcome in undercover courtyard.,-37.8035316,145.0048929,nominatim
Crooked Letters,293 High St Prahran VIC 3181,Cafe,Dogs welcome at outdoor seating with treats available.,-37.8523406,144.9980002,nominatim
Curtain Square,Rathdowne St Carlton North VIC 3054,Park,Dog-friendly park with on-leash and off-leash zones.,-37.7894594,144.9719931,nominatim
Darling Gardens,221 Gold St Clifton Hill VIC 3068,Park,Part of the park is designated dog off-leash.,-37.7908939,144.9902204,nominatim
Doghouse Cafe,195 Johnston St Collingwood VIC 3066,Cafe,Dog-focused cafe with dog menu and off-lead rear area.,-37.7998667,144.9919632,nominatim
Dr Morse Bar & Eatery,274 Johnston St Abbotsford VIC 3067,Pub/Bar,Dogs welcome in courtyard and street seating.,-37.799833,144.9941396,nominatim
Edinburgh Gardens,65 Alfred Crescent Fitzroy North VIC 3068,Park,Large designated dog off-leash areas with water tap and toilets.,-37.7870295,144.9859854,nominatim
El Mirage,349 Lygon St Brunswick East VIC 3057,Cafe,Dogs welcome at outdoor seating with treats available.,-37.7676444,144.9721856,nominatim
Faraday's Cage,325-329 Gore St Fitzroy VIC 3065,Cafe,Dog-friendly cafe with outdoor seating.,-37.7993754,144.9827654,facebook+nominatim
Fawkner Park,24-88 Commercial Rd South Yarra VIC 3141,Park,Designated dog off-leash areas with water taps and toilets.,-37.8413214,144.9844022,nominatim
Field Black Cafe,468 High St Northcote VIC 3070,Cafe,Dogs welcome in courtyard and street seating.,-37.7660818,144.9995388,nominatim
Fitzroy Town Hall Hotel,166 Johnston St Fitzroy VIC 3065,Pub/Bar,Pups welcome in the public bar and outdoor deck with treats behind the bar.,-37.7987104,144.9804853,facebook+manual
Flockhart Reserve,52 Flockhart St Abbotsford VIC 3067,Park,Dog off-leash area on the Yarra River.,-37.8080012,145.0077923,nominatim
Fourth Chapter,385 High St Prahran VIC 3181,Cafe,Dogs welcome at outdoor seating with water bowls and treats.,-37.8527359,145.0012404,nominatim
Friends of Mine,506 Swan St Richmond VIC 3121,Cafe,Dogs welcome at outdoor seating with water bowls.,-37.8271012,145.0092499,nominatim
Gahan Reserve,118 Park St Collingwood VIC 3066,Park,Southern half is a designated dog off-leash zone.,-37.80348,144.9944,manual
Glory Us,73 Reid St Fitzroy North VIC 3068,Cafe,Dogs welcome for coffee and dog treats stocked.,-37.7853874,144.9804807,nominatim
Goldy's Tavern,66 Gold St Collingwood VIC 3066,Pub/Bar,Dog-friendly pub with undercover beer garden.,-37.7965061,144.9898526,nominatim
Greensleeves Coffee House,100 Scotchmer St Fitzroy North VIC 3068,Cafe,Dogs welcome at outdoor seating and courtyard tables.,-37.7832356,144.9821608,facebook+nominatim
Hachi Dog Boutique & Spa,16A Toorak Rd South Yarra VIC 3141,Shop,Dogs welcome in-store for fittings and shopping.,-37.8385348,144.9870285,nominatim
Harlow,447 Church St Richmond VIC 3121,Pub/Bar,Dogs welcome on rooftop courtyard and street seating.,-37.826795,144.9979343,nominatim
Holla Coffee Roasters,284 Victoria St Richmond VIC 3121,Cafe,Leashed dogs welcome at street seating.,-37.8118919,145.0131978,nominatim
Janet Millman Reserve,24 Railway St Fitzroy North VIC 3068,Park,Dog off-leash area with shared-path leash restrictions.,-37.7801051,144.9829074,nominatim
Jardin Tan,Birdwood Ave South Yarra VIC 3141,Cafe,Dogs welcome in undercover courtyard.,-37.82963,144.97574,manual
Jerry Joy Cafe,128 Mansfield St Thornbury VIC 3071,Cafe,Dog-friendly covered courtyard and outdoor area.,-37.7574685,145.0097801,facebook+nominatim
Joey Smalls,284 Sydney Rd Brunswick VIC 3056,Pub/Bar,Dogs welcome in the outdoor deck area.,-37.771083,144.961764,manual
Jethro Canteen,385-389 Burnley St Richmond VIC 3121,Cafe,Leashed dogs welcome at street seating.,-37.8264195,145.00722,nominatim
Kanteen,154 Alexandra Ave South Yarra VIC 3141,Cafe,Dog-friendly outdoor seating with water bowls and covered patio.,-37.8316524,145.0050871,nominatim
Kent Street Bar,201 Smith St Fitzroy VIC 3065,Pub/Bar,Dog-friendly courtyard with water bowls.,-37.8031528,144.9833865,nominatim
King William Reserve,55 King William St Fitzroy VIC 3065,Park,Dog on-leash area with drinking fountain.,-37.8020324,144.9764075,nominatim
Lawson Grove Shop,1 Lawson Grove South Yarra VIC 3141,Cafe,Dog-friendly streetside tables with water bowls and treats.,-37.8336089,144.9903397,nominatim
Leaf Lane Cafe,14 Luxton Rd South Yarra VIC 3141,Cafe,Dogs welcome at undercover street seating.,-37.8451771,145.0022051,nominatim
Le Gourmet Cakes,271 Brunswick St Fitzroy VIC 3065,Cafe,Dogs welcome at this Brunswick Street cake cafe.,-37.79928,144.97815,facebook+manual
Leonard's House of Love,3 Wilson St South Yarra VIC 3141,Pub/Bar,Dogs welcome in heated undercover courtyard.,-37.8436508,144.9956175,nominatim
Little Local,299 High St Northcote VIC 3070,Cafe,Dogs welcome in rear garden with treats available.,-37.7716643,144.9983866,nominatim
Lost and Found Market,288 Brunswick St Fitzroy VIC 3065,Shop,Leashed dogs welcome while browsing the vintage market.,-37.798486,144.97865,manual
Lulie Tavern,225 Johnston St Abbotsford VIC 3067,Pub/Bar,Dogs welcome inside and in the courtyard.,-37.8000264,144.9936498,nominatim
Marquis of Lorne,411 George St Fitzroy VIC 3065,Pub/Bar,Leashed dogs welcome inside and at street seating.,-37.7972297,144.9819606,nominatim
Mavis the Grocer,197 Vere St Abbotsford VIC 3067,Cafe,Dogs welcome in undercover courtyard.,-37.8030269,144.9970286,nominatim
Milkwood,120 Nicholson St Brunswick East VIC 3057,Cafe,Dogs welcome at outdoor seating with water bowls and treats.,-37.7628862,144.9792498,nominatim
Mitte Cafe,76 Michael St Fitzroy North VIC 3068,Cafe,Dogs welcome at outdoor seating with treats available.,-37.7857098,144.9893085,manual
Monty's Bar,209 St Georges Rd Fitzroy North VIC 3068,Pub/Bar,Dog-friendly inside and in the covered courtyard.,-37.7841018,144.9828973,nominatim
Mount Erica Hotel,420 High St Prahran VIC 3181,Pub/Bar,Dogs welcome in large courtyards and inside when quiet.,-37.8533532,145.0026962,nominatim
Ned's Bake,134 Toorak Rd South Yarra VIC 3141,Cafe,Dogs welcome in undercover outdoor area.,-37.8390499,144.990873,nominatim
Nighthawks,136 Johnston St Collingwood VIC 3066,Pub/Bar,Listed dog-friendly with outdoor seating.,-37.7993224,144.9895284,nominatim
Norman South Yarra,Shop 2 300 Toorak Rd South Yarra VIC 3141,Cafe,Dogs welcome at undercover street seating.,-37.839839,144.9972193,manual
O'Connells,407 Coventry St South Melbourne VIC 3205,Pub/Bar,Dogs allowed outside with covered umbrella seating.,-37.8321207,144.9592873,nominatim
Oh Loretta,324 High St Northcote VIC 3070,Pub/Bar,Dogs welcome in courtyard and street seating.,-37.7705701,144.9989262,nominatim
Ophelia,85 High St Northcote VIC 3070,Cafe,Dogs welcome at outdoor seating with treats available.,-37.7801923,144.9966978,nominatim
Park Street Reserve,68 Park St Fitzroy North VIC 3068,Park,Dog off-leash area with leash restrictions near playgrounds and shared paths.,-37.781515,144.9869188,nominatim
Pendant Public Bar,334 Brunswick St Fitzroy VIC 3065,Pub/Bar,Dog-friendly bar where dogs are welcomed inside.,-37.7972971,144.9788733,nominatim
Pilgrim Bar,15-19 Federation Wharf Melbourne VIC 3000,Pub/Bar,Dogs welcome in undercover courtyard and street seating.,-37.8187898,144.969469,nominatim
Pillar of Salt,541 Church St Richmond VIC 3121,Cafe,Dogs welcome in courtyard and street seating.,-37.8296726,144.9974247,nominatim
Prahran Hotel,82 High St Prahran VIC 3181,Pub/Bar,Dogs welcome in courtyard areas.,-37.8513691,144.9885113,nominatim
Prince Alfred Hotel,619 Church St Richmond VIC 3121,Pub/Bar,Dogs welcome in covered beer garden with water bowls.,-37.8320985,144.9968811,nominatim
Quarries Park,41 Ramsden St Clifton Hill VIC 3068,Park,Designated dog off-leash areas with sportsground restrictions.,-37.7906213,144.9967427,nominatim
Republica,10-18 Jacka Blvd St Kilda VIC 3182,Pub/Bar,Dogs allowed in large outdoor courtyard with water bowls.,-37.8656234,144.9720318,nominatim
Rice Paper Scissors,307 Brunswick St Fitzroy VIC 3065,Cafe,Dogs welcome in the outdoor seating area.,-37.7978448,144.978284,nominatim
Riverland Bar,Federation Wharf Vaults 1-9 Melbourne VIC 3000,Pub/Bar,Dogs welcome in heated undercover courtyard.,-37.8187191,144.9687043,manual
Rochester Hotel,202 Johnston St Fitzroy VIC 3065,Pub/Bar,Dogs welcome in indoor and outdoor areas with water bowls.,-37.7988193,144.9816836,nominatim
Royal Saxon,545 Church St Richmond VIC 3121,Pub/Bar,Leashed dogs welcome in heated undercover courtyard.,-37.8297837,144.9974954,nominatim
Rushall Reserve,267 Holden St Fitzroy North VIC 3068,Park,Dogs may be exercised off-leash outside wetland and Merri Creek bank areas.,-37.7802439,144.9906055,nominatim
Smith Reserve,Smith Reserve Cecil Street Fitzroy VIC 3065,Park,Dog off-leash area with drinking fountain and playground restrictions.,-37.7945291,144.9819942,manual
SOS Cafe,Unit 5 177 Toorak Rd South Yarra VIC 3141,Cafe,Dogs welcome in courtyard and street seating.,-37.8389602,144.993147,manual
South of Johnston,46 Oxford St Collingwood VIC 3066,Cafe,Dogs welcome in outdoor seating and a dog-friendly indoor area.,-37.8060035,144.9846903,facebook+nominatim
Speakeasy Kitchen Bar,359 Chapel St South Yarra VIC 3141,Pub/Bar,Dogs welcome in courtyard and street seating.,-37.8463496,144.9940857,nominatim
Sporting Club Hotel,27 Weston St Brunswick VIC 3056,Pub/Bar,"Dogs welcome in the front bar, beer garden and outdoor seating.",-37.7748361,144.9632853,facebook+nominatim
Stillman Cafe,237 Burnley St Richmond VIC 3121,Cafe,Dogs welcome in undercover courtyard.,-37.8216199,145.0081509,nominatim
Stomping Ground Brewery & Beer Hall,100 Gipps St Collingwood VIC 3066,Pub/Bar,Leashed dogs welcome in the heated undercover courtyard.,-37.8045616,144.9908005,facebook+nominatim
Sugar Glider Bar,56 Johnston St Fitzroy VIC 3065,Pub/Bar,Dog-friendly bar with outdoor seating.,-37.7983041,144.9765237,csv
Taita's Lebanese Kitchen,73 Clarendon St Thornbury VIC 3071,Cafe,Dogs welcome in the patio courtyard.,-37.7598919,145.0052674,facebook+nominatim
Tallboy & Moose,270 Raglan St Preston VIC 3072,Pub/Bar,Dogs welcome indoors and on the patio with dog bowls.,-37.7486826,145.0028763,facebook+nominatim
Tall Timber Cafe,60 Commercial Rd Prahran VIC 3181,Cafe,Dogs welcome in courtyard and street seating.,-37.8461691,144.9881461,nominatim
Temperance Hotel,426 Chapel St South Yarra VIC 3141,Pub/Bar,Dog-friendly outdoor areas with water bowls.,-37.8446255,144.9947964,nominatim
The Albion,172 York St South Melbourne VIC 3205,Pub/Bar,User-recommended dog-friendly rooftop and outdoor venue.,-37.8315664,144.9560233,nominatim
The B.East,80 Lygon St Brunswick East VIC 3057,Pub/Bar,Leashed dogs welcome at street seating.,-37.7762895,144.9711737,nominatim
The Empress Hotel,708-714 Nicholson St Fitzroy North VIC 3068,Pub/Bar,Dog-friendly beer garden with water bowls and covered patio.,-37.7827837,144.9779257,nominatim
The Esplanade Hotel,11 The Esplanade St Kilda VIC 3182,Pub/Bar,Dogs welcome in front beer garden.,-37.8640582,144.973013,nominatim
The Farm Cafe,18 St Heliers St Abbotsford VIC 3067,Cafe,Dogs welcome in shaded alfresco courtyard with water.,-37.8030279,145.0057409,nominatim
The Fitzroy Beer Garden,243 Gertrude St Fitzroy VIC 3065,Pub/Bar,Dog-friendly beer garden with covered patio.,-37.8062207,144.9825807,nominatim
The Fox Hotel,351 Wellington St Collingwood VIC 3066,Pub/Bar,Dogs welcome in courtyard and rooftop areas with water bowls.,-37.7945169,144.9878886,nominatim
The Grace Darling Hotel,114 Smith St Collingwood VIC 3066,Pub/Bar,Listed dog-friendly with outdoor areas.,-37.804851,144.983442,nominatim
The Kettle Black,50 Albert Rd South Melbourne VIC 3205,Cafe,Dog-friendly courtyard with water bowls and covered patio.,-37.8341251,144.9713427,nominatim
The Keys,1/188 Plenty Rd Preston VIC 3072,Pub/Bar,Dogs welcome in the courtyard.,-37.7468183,145.0058527,facebook+nominatim
The Local Taphouse,184 Carlisle St St Kilda East VIC 3183,Pub/Bar,Dogs welcome on deck and in beer garden with water available.,-37.8681208,144.989994,manual
The Lord Newry Hotel,543 Brunswick St Fitzroy North VIC 3068,Pub/Bar,Dog-friendly pub near Edinburgh Gardens.,-37.7908244,144.9795311,nominatim
The Mill Brewery,40 Sackville St Collingwood VIC 3066,Pub/Bar,Dogs welcome inside and in covered areas with water bowls.,-37.7982615,144.9860039,nominatim
The National Hotel,344 Victoria St Richmond VIC 3121,Pub/Bar,Dogs welcome in partially covered beer garden with water bowls.,-37.8109133,145.0028288,nominatim
The Palace Hotel,505-507 City Rd South Melbourne VIC 3205,Pub/Bar,Dogs allowed in beer garden with water bowls and heaters.,-37.8340778,144.9501509,nominatim
The Park Hotel Abbotsford,191 Nicholson St Abbotsford VIC 3067,Pub/Bar,Dogs welcome in street seating and covered courtyard.,-37.8028466,144.9970225,nominatim
The Punters Club,376 Brunswick St Fitzroy VIC 3065,Pub/Bar,User-recommended dog-friendly pub with outdoor seating.,-37.7960561,144.9790327,nominatim
The Rainbow Hotel,27 St David St Fitzroy VIC 3065,Pub/Bar,Dogs welcome in the covered courtyard with water bowls.,-37.8005789,144.9793433,nominatim
The Retreat Hotel,280 Sydney Rd Brunswick VIC 3056,Pub/Bar,Dogs welcome in the beer garden and outdoor seating.,-37.771168,144.961609,facebook+manual
The Rose Hotel,406 Napier St Fitzroy VIC 3065,Pub/Bar,Dog-friendly Fitzroy pub with treats behind the bar.,-37.7955345,144.9815065,facebook+nominatim
The Shady Lady,36 Johnston St Fitzroy VIC 3065,Pub/Bar,Dogs welcome in indoor and beer garden areas until 10pm.,-37.7982507,144.9760194,nominatim
The Standard Hotel,293 Fitzroy St Fitzroy VIC 3065,Pub/Bar,Dog-friendly beer garden.,-37.8007515,144.9768301,nominatim
The Swan Hotel,425 Church St Richmond VIC 3121,Pub/Bar,Dog-friendly pub with beer garden and water bowls.,-37.8341639,144.9966058,nominatim
The Terminus Hotel,605 Victoria St Abbotsford VIC 3067,Pub/Bar,Dogs welcome in leafy beer garden with water bowls.,-37.8109749,145.0072652,nominatim
The Tipsy Cow Malt and Wine,361 Bay St Port Melbourne VIC 3207,Pub/Bar,Dogs welcome indoors and in dog-friendly courtyard.,-37.83525,144.945172,nominatim
The Tramway Hotel,165 Rae St Fitzroy North VIC 3068,Pub/Bar,Dogs welcome in the small courtyard.,-37.7885137,144.9789774,facebook+nominatim
Uitgang Bar,406 Bridge Rd Richmond VIC 3121,Pub/Bar,Dogs welcome inside courtyard and street seating.,-37.8194622,145.0049634,nominatim
Union Club Hotel,164 Gore St Fitzroy VIC 3065,Pub/Bar,Dogs welcome in courtyard rooftop and street areas.,-37.8038783,144.9824011,nominatim
Victoria Gardens,52 Murray St Prahran VIC 3181,Park,Sunken garden is designated for dog off-leash exercise.,-37.8505481,145.0005509,nominatim
Victoria Park Dog Off Leash Area,22 Lulie St Abbotsford VIC 3067,Park,Dogs allowed off-leash on the oval when sports grounds are not in use.,-37.796984,144.9956933,nominatim
Welcome to Brunswick,1 Frith St Brunswick VIC 3056,Pub/Bar,Dogs welcome inside and in covered beer garden areas.,-37.7684063,144.9628364,nominatim
Welcome to Thornbury,520 High St Northcote VIC 3070,Pub/Bar,Large dog-friendly open-air seating area with water bowls.,-37.7646905,144.9999947,nominatim
Wesley Anne,250 High St Northcote VIC 3070,Pub/Bar,Dogs welcome on the front and rear patios.,-37.7729134,144.9984324,facebook+nominatim
West Beach Bathers Pavilion,330A Beaconsfield Parade St Kilda West VIC 3182,Pub/Bar,Dog-friendly beachside venue with water bowls and covered patio.,-37.8582156,144.9684327,nominatim
Wonderland,37 Chapel St Windsor VIC 3181,Pub/Bar,Dog-friendly bar with covered outdoor area.,-37.8557999,144.9924611,nominatim
Yarra Hotel,295 Johnston St Abbotsford VIC 3067,Pub/Bar,Dogs welcome in undercover beer garden with water bowls.,-37.7998417,144.9930048,nominatim
Yellow Bird,122A Chapel St Windsor VIC 3181,Pub/Bar,Dogs welcome outside with cover and water bowls.,-37.8551783,144.9927429,manual
Alphington Park,28 Parkview Rd Alphington VIC 3078,Park,Dogs allowed off-leash before 10am and after 5pm.,-37.78405,145.0298326,yarra+nominatim
Annette's Place,5 River St Richmond VIC 3121,Park,Dogs can be off-leash near the Yarra River.,-37.814488,145.0138422,yarra+nominatim
Burnley Park,150 Yarra Blvd Richmond VIC 3121,Park,Dog off-leash area; dogs prohibited on sports grounds during organised sport.,-37.8250151,145.0147064,yarra+nominatim
Coate Park,14 Yarraford Ave Alphington VIC 3078,Park,Dog off-leash area in the northern section of the park.,-37.7856007,145.0226996,yarra+nominatim
Coulson Reserve,1 Heidelberg Rd Clifton Hill VIC 3068,Park,Dogs allowed off-leash on unfenced sports grounds when not in use.,-37.7858895,144.997391,yarra+nominatim
Dame Nellie Melba Memorial Park,Coppin St Richmond VIC 3121,Park,Dogs allowed off-leash before 9am and after 5pm.,-37.821448,145.0029281,yarra+nominatim
Fairfield Park,Fairfield Park Dr Fairfield VIC 3078,Park,Dogs allowed off-leash when sports grounds are not in use.,-37.7856515,145.0123632,yarra+nominatim
Golden Square Bicentennial Park,Madden Grove Burnley VIC 3121,Park,"Dogs allowed off-leash away from playgrounds, barbecues and picnic areas.",-37.8285049,145.0100074,yarra+nominatim
Hall Reserve,The Esplanade Clifton Hill VIC 3068,Park,Dogs allowed off-leash away from playgrounds.,-37.7866691,145.0054576,yarra+nominatim
Hardy Gallagher Reserve,21 Solly Ave Princes Hill VIC 3054,Park,Dogs allowed off-leash away from playgrounds and community growing areas.,-37.7795124,144.9657902,yarra+nominatim
Kevin Bartlett Reserve,F R Smith Dr Burnley VIC 3121,Park,Dogs allowed off-leash when sports grounds are not in use.,-37.8318228,145.0249649,yarra+nominatim
Langdon Reserve,Corner Nicholson St and Miller St Fitzroy North VIC 3068,Park,Dog off-leash park except within the playground.,-37.7767846,144.9791592,yarra+nominatim
Ramsden Street Reserve,110 Field St Clifton Hill VIC 3068,Park,Dogs allowed off-leash on unfenced sports grounds when not in use.,-37.7921898,145.0033601,yarra+nominatim
T H Westfield Reserve,Corner Yarra Bend Rd and Heidelberg Rd Clifton Hill VIC 3068,Park,Dogs can be off-leash; keep them leashed near picnic areas and paths.,-37.7896861,145.0088944,yarra+manual
Yarra Bend Park,Yarra Bend Rd Fairfield VIC 3078,Park,Includes designated dog off-leash areas.,-37.7937526,145.0107027,yarra+nominatim
Canning and Neill Street Reserve,2 Neill St Carlton VIC 3053,Park,Timed dog off-leash area.,-37.7930779,144.9739746,melbourne+nominatim
Clayton Reserve,204 Macaulay Rd North Melbourne VIC 3051,Park,Large fenced dog off-leash park.,-37.7960118,144.9390709,melbourne+nominatim
Gosch's Paddock,Olympic Blvd Melbourne VIC 3004,Park,Dogs allowed off-leash in grassy areas between the ovals.,-37.8259527,144.9868017,melbourne+nominatim
Kings Way and Moray Street Reserve,Moray St Southbank VIC 3006,Park,Fully fenced off-leash dog park with dog play equipment and drinking fountain.,-37.8271239,144.9606687,melbourne+nominatim
North Melbourne Recreation Reserve,204-206 Arden St North Melbourne VIC 3051,Park,Dog off-leash area around Arden Oval.,-37.7991416,144.9414086,melbourne+nominatim
Point Park,104 Lorimer St Docklands VIC 3008,Park,Timed dog off-leash lawns near Yarra's Edge.,-37.8234676,144.9411745,melbourne+nominatim
Princes Park,Bowen Crescent Carlton North VIC 3054,Park,Designated off-leash areas including Crawford Oval and Bowen Crescent.,-37.7837511,144.9618312,melbourne+nominatim
Riverside Park,93-95 The Crescent Kensington VIC 3031,Park,Timed dog off-leash area.,-37.7631022,144.8912392,melbourne+nominatim
Royal Park South,Macarthur Rd Parkville VIC 3052,Park,Dogs can be off-leash south of Macarthur Road.,-37.7881362,144.954963,melbourne+nominatim
Alma Park,150 Dandenong Rd St Kilda East VIC 3183,Park,Designated dog off-leash areas in Alma Park West and north of the oval in Alma Park East.,-37.8582927,144.9936156,port-phillip+nominatim
Eastern Reserve,141 Park St South Melbourne VIC 3205,Park,Eastern Reserve North is a fenced dog off-leash park.,-37.8344728,144.965799,port-phillip+nominatim
Elwood Park and Foreshore,Ormond Esplanade Elwood VIC 3184,Park,Large foreshore park with designated dog off-leash areas.,-37.8909895,144.9904094,port-phillip+nominatim
Garden City Reserve,Beacon Rd and Crichton Ave Port Melbourne VIC 3207,Park,Dogs permitted off-leash away from the playground.,-37.8365345,144.9298458,port-phillip+nominatim
Gasworks Arts Park,21 Graham St Albert Park VIC 3206,Park,Dogs can be off-leash in the park.,-37.8424949,144.9469359,port-phillip+nominatim
Howe Reserve,Corner Station St and Ingles St Port Melbourne VIC 3207,Park,Dogs can be off-leash in the reserve.,-37.8328858,144.9447551,port-phillip+nominatim
Lagoon Reserve,Graham St Port Melbourne VIC 3207,Park,Dogs permitted off-leash away from playground and picnic areas.,-37.8410977,144.9443465,port-phillip+nominatim
Moran Reserve,Marine Parade St Kilda VIC 3182,Park,Dogs can be off-leash on Marine Parade.,-37.8687513,144.9756163,port-phillip+nominatim
Peanut Farm Reserve,Corner Chaucer St and Blessington St St Kilda VIC 3182,Park,Dog off-leash sports reserve; check temporary sportsground closures.,-37.8700115,144.9785777,port-phillip+nominatim
R.F. Julier Reserve,Corner Dunstan Parade and Edina Ave Port Melbourne VIC 3207,Park,Dogs can be off-leash around paths and picnic areas.,-37.8378376,144.9227001,port-phillip+nominatim
A G Gillon Oval,78 Pearson St Brunswick VIC 3056,Park,Dogs can be off-leash when sport is not in progress.,-37.7642566,144.9499027,merri-bek+nominatim
Abrahams Reserve,50-72 Harrison St Brunswick East VIC 3057,Park,Dogs can be off-leash in the reserve.,-37.7585419,144.9805399,merri-bek+nominatim
Balfe Park,54-64 John St Brunswick East VIC 3057,Park,Dogs can be off-leash in the park.,-37.7745266,144.9775218,merri-bek+nominatim
Brady Reserve,229 Hope St Brunswick West VIC 3055,Park,Dogs can be off-leash in the reserve.,-37.7628603,144.9386904,merri-bek+nominatim
Clifton Park,377 Albert St Brunswick VIC 3056,Park,Dogs can be off-leash in the park.,-37.7668702,144.9541198,merri-bek+nominatim
Dunstan Reserve,24 Peacock St Brunswick West VIC 3055,Park,Dogs can be off-leash in the reserve.,-37.7548657,144.9400639,merri-bek+nominatim
Fleming Park,47-51 Albert St Brunswick East VIC 3057,Park,Dogs can be off-leash in the reserve.,-37.7692087,144.9758939,merri-bek+nominatim
Fraser Reserve,16-24 Hopetoun Ave Brunswick West VIC 3055,Park,Dogs can be off-leash in the reserve.,-37.7552208,144.9356804,merri-bek+nominatim
Gilpin Park,348-374 Albert St Brunswick VIC 3056,Park,"Dogs can be off-leash, with an enclosed dog park area.",-37.7686088,144.950198,merri-bek+nominatim
Holbrook Reserve,8 Jewell Crescent Brunswick West VIC 3055,Park,Dogs can be off-leash in the reserve.,-37.7702694,144.9361781,merri-bek+nominatim
Jones Park,9-23 Albion St Brunswick East VIC 3057,Park,Dogs can be off-leash in the park.,-37.7618722,144.9794161,merri-bek+nominatim
Kirkdale Park,31 Kirkdale St Brunswick East VIC 3057,Park,Dogs can be off-leash in the park.,-37.7701943,144.9834741,merri-bek+nominatim
Methven Park,7 Methven St Brunswick East VIC 3057,Park,Dogs can be off-leash in the park.,-37.7715051,144.9732623,merri-bek+nominatim
Phillips Reserve,2-10 Weigall St Brunswick East VIC 3057,Park,Dogs can be off-leash in the reserve.,-37.768406,144.9839986,merri-bek+nominatim
Reaburn Reserve,72 Pearson St Brunswick VIC 3056,Park,Dogs can be off-leash in the reserve.,-37.7645525,144.9496529,merri-bek+nominatim
Roberts Reserve,50-72 Harrison St Brunswick East VIC 3057,Park,Dogs can be off-leash in the reserve.,-37.7610966,144.9817953,merri-bek+nominatim
Sheils Reserve,306 Hope St Brunswick West VIC 3055,Park,Dogs can be off-leash in the reserve.,-37.7608016,144.9400933,merri-bek+nominatim
Sumner Park,3 Alister St Brunswick East VIC 3057,Park,Dogs can be off-leash in the park.,-37.7741846,144.9855827,merri-bek+nominatim
Wylie Reserve,256-264 Union St Brunswick West VIC 3055,Park,Dogs can be off-leash in the reserve.,-37.771447,144.9439548,merri-bek+nominatim
All Nations Park,Separation St Northcote VIC 3070,Park,Dogs off-lead only in the designated area off Brickworks Lane.,-37.7679679,145.0055364,darebin+nominatim
Hayes Park,143 Flinders St Thornbury VIC 3071,Park,Dogs can be off-lead in the park.,-37.7571202,145.0179595,darebin+nominatim
Henderson Park,3 Watt St Thornbury VIC 3071,Park,Dogs can be off-lead in the park.,-37.7540477,144.9969817,darebin+nominatim
Mayer Park,141 Normanby Ave Thornbury VIC 3071,Park,Dogs can be off-lead in the park.,-37.7581281,144.9869988,darebin+nominatim
McDonnell Park,68 Clifton St Northcote VIC 3070,Park,Dogs can be off-lead in the park.,-37.7684588,145.016332,darebin+nominatim
Merri Park,2 Sumner Ave Northcote VIC 3070,Park,Dogs can be off-lead in the park.,-37.770437,144.9849827,darebin+nominatim
Penders Park,48A Pender St Thornbury VIC 3071,Park,Dogs can be off-lead; toilets and walking paths are available.,-37.7546034,145.0073415,darebin+nominatim
T W Blake Park,82 Gower St Preston VIC 3072,Park,Dogs allowed off-lead outside organised sporting hours.,-37.7415996,145.0250268,darebin+nominatim
